countryCode,thematicIdIdentifier,thematicIdIdentifierScheme,monitoringSiteIdentifier,monitoringSiteIdentifierScheme,monitoringSiteName,waterBodyIdentifier,waterBodyIdentifierScheme,waterBodyName,specialisedZoneType,naturalAWBHMWB,reservoir,surfaceWaterBodyTypeCode,subUnitIdentifier,subUnitIdentifierScheme,subUnitName,rbdIdentifier,rbdIdentifierScheme,rbdName,confidentialityStatus,lon,lat,statusCode
"CH","CHRBD-3","eionetRBDCode","","","","","","","","","","","","","","CHRBD-3","eionetRBDCode","DANUBE","inapplicable","10.13005","46.66770","stable"
"CH","CHRHONECHANCY","eionetSubUnitCode","","","","","","","riverBasinDistrictSubUnit","","","","CHRHONECHANCY","eionetSubUnitCode","RHONECHANCY_CH-PART","CHRBD-2","eionetRBDCode","RHONE","inapplicable","","","retired"
"CH","CH5003","eionetSubUnitCode","","","","","","","riverBasinDistrictSubUnit","","","","CH5003","eionetSubUnitCode","RHO-EZGUS","CHRBD-2","eionetRBDCode","RHONE","inapplicable","","","retired"
"CH","CHSU-3","eionetSubUnitCode","","","","","","","riverBasinDistrictSubUnit","","","","CHSU-3","eionetSubUnitCode","DANUBE","CHRBD-3","eionetRBDCode","DANUBE","inapplicable","10.13005","46.66770","stable"
"CH","CHLWB-3005","eionetSurfaceWaterBodyCode","","","","CHLWB-3005","eionetSurfaceWaterBodyCode","ZÜRICHSEE","lakeWaterBody","","","","CHSU-1","eionetSubUnitCode","RHINE","CHRBD-1","eionetRBDCode","RHINE","inapplicable","8.59785","47.27912","stable"
"CH","CHLWB-3015","eionetSurfaceWaterBodyCode","","","","CHLWB-3015","eionetSurfaceWaterBodyCode","SEMPACHERSEE","lakeWaterBody","","","","CHSU-1","eionetSubUnitCode","RHINE","CHRBD-1","eionetRBDCode","RHINE","inapplicable","8.15270","47.14587","stable"
"CH","CHSU-2","eionetSubUnitCode","","","","","","","riverBasinDistrictSubUnit","","","","CHSU-2","eionetSubUnitCode","RHONE","CHRBD-2","eionetRBDCode","RHONE","inapplicable","7.47670","46.27011","stable"
"CH","CH5002","eionetSubUnitCode","","","","","","","riverBasinDistrictSubUnit","","","","CH5002","eionetSubUnitCode","DOUBS","CHRBD-2","eionetRBDCode","RHONE","inapplicable","","","retired"
"CH","CH8002","eionetSubUnitCode","","","","","","","riverBasinDistrictSubUnit","","","","CH8002","eionetSubUnitCode","INNS-CHANF","CHRBD-3","eionetRBDCode","DANUBE","inapplicable","","","retired"
"CH","CH6001","eionetSubUnitCode","","","","","","","riverBasinDistrictSubUnit","","","","CH6001","eionetSubUnitCode","TICINO","CHRBD-4","eionetRBDCode","PO","inapplicable","","","retired"
"CH","CHRHONEPDSCEX","eionetSubUnitCode","","","","","","","riverBasinDistrictSubUnit","","","","CHRHONEPDSCEX","eionetSubUnitCode","RHONE UPSTREAM LAKE GENEVA","CHRBD-2","eionetRBDCode","RHONE","inapplicable","","","retired"
"CH","CHINNS-CHANF","eionetSubUnitCode","","","","","","","riverBasinDistrictSubUnit","","","","CHINNS-CHANF","eionetSubUnitCode","INNS-CHANF","CHRBD-3","eionetRBDCode","DANUBE","inapplicable","","","retired"
"CH","CHSU-1","eionetSubUnitCode","","","","","","","riverBasinDistrictSubUnit","","","","CHSU-1","eionetSubUnitCode","RHINE","CHRBD-1","eionetRBDCode","RHINE","inapplicable","8.15005","47.06708","stable"
"CH","CHLWB-3013","eionetSurfaceWaterBodyCode","","","","CHLWB-3013","eionetSurfaceWaterBodyCode","BALDEGGERSEE","lakeWaterBody","","","","CHSU-1","eionetSubUnitCode","RHINE","CHRBD-1","eionetRBDCode","RHINE","inapplicable","8.26001","47.20167","stable"
"CH","CHREZGUS","eionetSubUnitCode","","","","","","","riverBasinDistrictSubUnit","","","","CHREZGUS","eionetSubUnitCode","RHINE DOWNSTREAM OF THE ALPINE LAKES","CHRBD-1","eionetRBDCode","RHINE","inapplicable","","","retired"
"CH","CHLWB-3046","eionetSurfaceWaterBodyCode","","","","CHLWB-3046","eionetSurfaceWaterBodyCode","LAGO DI LUGANO SÜDBECKEN","lakeWaterBody","","","","CHSU-4","eionetSubUnitCode","PO","CHRBD-4","eionetRBDCode","PO","inapplicable","8.95310","45.95004","stable"
"CH","CHRBD-4","eionetRBDCode","","","","","","","","","","","","","","CHRBD-4","eionetRBDCode","PO","inapplicable","8.86542","46.22195","stable"
"CH","CHTICINORIAZZINO","eionetSubUnitCode","","","","","","","riverBasinDistrictSubUnit","","","","CHTICINORIAZZINO","eionetSubUnitCode","TICINORIAZZINO-CH-PART","CHRBD-4","eionetRBDCode","PO","inapplicable","","","retired"
"CH","CHRBD-2","eionetRBDCode","","","","","","","","","","","","","","CHRBD-2","eionetRBDCode","RHONE","inapplicable","7.47670","46.27011","stable"
"CH","CHRBD-1","eionetRBDCode","","","","","","","","","","","","","","CHRBD-1","eionetRBDCode","RHINE","inapplicable","8.15005","47.06708","stable"
"CH","CHLWB-3025","eionetSurfaceWaterBodyCode","","","","CHLWB-3025","eionetSurfaceWaterBodyCode","WALENSEE","lakeWaterBody","","","","CHSU-1","eionetSubUnitCode","RHINE","CHRBD-1","eionetRBDCode","RHINE","inapplicable","9.22040","47.12555","stable"
"CH","CH6006","eionetSubUnitCode","","","","","","","riverBasinDistrictSubUnit","","","","CH6006","eionetSubUnitCode","PO-EZGUS","CHRBD-4","eionetRBDCode","PO","inapplicable","","","retired"
"CH","CHLWB-3039","eionetSurfaceWaterBodyCode","","","","CHLWB-3039","eionetSurfaceWaterBodyCode","LE LÉMAN","lakeWaterBody","","","","CHSU-2","eionetSubUnitCode","RHONE","CHRBD-2","eionetRBDCode","RHONE","inapplicable","6.53945","46.48213","stable"
"CH","CHSU-5","eionetSubUnitCode","","","","","","","riverBasinDistrictSubUnit","","","","CHSU-5","eionetSubUnitCode","ADIGE","CHRBD-5","eionetRBDCode","ADIGE","inapplicable","10.40694","46.59708","stable"
"CH","CHLWB-3006","eionetSurfaceWaterBodyCode","","","","CHLWB-3006","eionetSurfaceWaterBodyCode","THUNERSEE","lakeWaterBody","","","","CHSU-1","eionetSubUnitCode","RHINE","CHRBD-1","eionetRBDCode","RHINE","inapplicable","7.69837","46.70042","stable"
"CH","CHRHONEEMISSAIRE","eionetSubUnitCode","","","","","","","riverBasinDistrictSubUnit","","","","CHRHONEEMISSAIRE","eionetSubUnitCode","RHONEEMISSAIRE_CH-PART","CHRBD-2","eionetRBDCode","RHONE","inapplicable","","","retired"
"CH","CHRBD-5","eionetRBDCode","","","","","","","","","","","","","","CHRBD-5","eionetRBDCode","ADIGE","inapplicable","10.40694","46.59708","stable"
"CH","CHTICINO","eionetSubUnitCode","","","","","","","riverBasinDistrictSubUnit","","","","CHTICINO","eionetSubUnitCode","TICINO CATCHMENT","CHRBD-4","eionetRBDCode","PO","inapplicable","","","retired"
"CH","CHSU-4","eionetSubUnitCode","","","","","","","riverBasinDistrictSubUnit","","","","CHSU-4","eionetSubUnitCode","PO","CHRBD-4","eionetRBDCode","PO","inapplicable","8.86542","46.22195","stable"
"CH","CHRHINEWEIL","eionetSubUnitCode","","","","","","","riverBasinDistrictSubUnit","","","","CHRHINEWEIL","eionetSubUnitCode","RHINEWEIL_CH-PART","CHRBD-1","eionetRBDCode","RHINE","inapplicable","","","retired"
"CH","CH1010","eionetSubUnitCode","","","","","","","riverBasinDistrictSubUnit","","","","CH1010","eionetSubUnitCode","REZGUS","CHRBD-1","eionetRBDCode","RHINE","inapplicable","","","retired"
"CH","CH8001","eionetSubUnitCode","","","","","","","riverBasinDistrictSubUnit","","","","CH8001","eionetSubUnitCode","INN","CHRBD-3","eionetRBDCode","DANUBE","inapplicable","","","retired"
"CH","CHLWB-3017","eionetSurfaceWaterBodyCode","","","","CHLWB-3017","eionetSurfaceWaterBodyCode","ZUGERSEE","lakeWaterBody","","","","CHSU-1","eionetSubUnitCode","RHINE","CHRBD-1","eionetRBDCode","RHINE","inapplicable","8.49044","47.12706","stable"
"CH","CHLWB-3007","eionetSurfaceWaterBodyCode","","","","CHLWB-3007","eionetSurfaceWaterBodyCode","BRIENZERSEE","lakeWaterBody","","","","CHSU-1","eionetSubUnitCode","RHINE","CHRBD-1","eionetRBDCode","RHINE","inapplicable","7.96492","46.72297","stable"
"CH","CHLWB-3018","eionetSurfaceWaterBodyCode","","","","CHLWB-3018","eionetSurfaceWaterBodyCode","VIERWALDSTÄTTERSEE","lakeWaterBody","","","","CHSU-1","eionetSubUnitCode","RHINE","CHRBD-1","eionetRBDCode","RHINE","inapplicable","8.49840","46.98538","stable"
"CH","CHLWB-3028","eionetSurfaceWaterBodyCode","","","","CHLWB-3028","eionetSurfaceWaterBodyCode","BODENSEE","lakeWaterBody","","","","CHSU-1","eionetSubUnitCode","RHINE","CHRBD-1","eionetRBDCode","RHINE","inapplicable","9.42793","47.56867","stable"
"CH","CHRW-1504","eionetMonitoringSiteCode","CHRW-1504","eionetMonitoringSiteCode","DELÉMONT","CHRWB-2169","eionetSurfaceWaterBodyCode","SORNE","riverWaterBody","","","","CHSU-1","eionetSubUnitCode","RHINE","CHRBD-1","eionetRBDCode","RHINE","F","7.35681","47.36990","stable"
"CH","CHRW-3860","eionetMonitoringSiteCode","CHRW-3860","eionetMonitoringSiteCode","MARTIGNY","CHRWB-2043","eionetSurfaceWaterBodyCode","DRANSE","riverWaterBody","","","","CHSU-2","eionetSubUnitCode","RHONE","CHRBD-2","eionetRBDCode","RHONE","F","7.06274","46.09768","stable"
"CH","CHRW-3938","eionetMonitoringSiteCode","CHRW-3938","eionetMonitoringSiteCode","BRIG","CHRWB-2222","eionetSurfaceWaterBodyCode","RHONE OBERLAUF","riverWaterBody","","","","CHSU-2","eionetSubUnitCode","RHONE","CHRBD-2","eionetRBDCode","RHONE","F","7.97536","46.31743","stable"
"CH","CHSF-2167","eionetMonitoringSiteCode","CHSF-2167","eionetMonitoringSiteCode","TRESA - PONTE TRESA,ROCCHETTA","CHRWB-2309","eionetSurfaceWaterBodyCode","TRESA","riverWaterBody","","","","CHSU-4","eionetSubUnitCode","PO","CHRBD-4","eionetRBDCode","PO","F","8.85240","45.97199","stable"
"CH","CHRW-6057","eionetMonitoringSiteCode","CHRW-6057","eionetMonitoringSiteCode","VICQUES","CHRWB-2280","eionetSurfaceWaterBodyCode","SCHEULTE","riverWaterBody","","","","CHSU-1","eionetSubUnitCode","RHINE","CHRBD-1","eionetRBDCode","RHINE","F","7.43182","47.34821","stable"
"CH","CHSF-2432","eionetMonitoringSiteCode","CHSF-2432","eionetMonitoringSiteCode","VENOGE - ECUBLENS, LES BOIS","CHRWB-2167","eionetSurfaceWaterBodyCode","VENOGE","riverWaterBody","","","","CHSU-2","eionetSubUnitCode","RHONE","CHRBD-2","eionetRBDCode","RHONE","F","6.55275","46.53528","stable"
"CH","CHSF-2243","eionetMonitoringSiteCode","CHSF-2243","eionetMonitoringSiteCode","LIMMAT - BADEN, LIMMATPROMENADE","CHRWB-2098","eionetSurfaceWaterBodyCode","LIMMAT","riverWaterBody","","","","CHSU-1","eionetSubUnitCode","RHINE","CHRBD-1","eionetRBDCode","RHINE","F","8.30942","47.47571","stable"
"CH","CHRW-1339","eionetMonitoringSiteCode","CHRW-1339","eionetMonitoringSiteCode","GEBENSTORF","CHRWB-2252","eionetSurfaceWaterBodyCode","REUSS UNTERLAUF","riverWaterBody","","","","CHSU-1","eionetSubUnitCode","RHINE","CHRBD-1","eionetRBDCode","RHINE","F","8.22744","47.47796","stable"
"CH","CHSF-2152","eionetMonitoringSiteCode","CHSF-2152","eionetMonitoringSiteCode","REUSS - LUZERN, GEISSMATTBRÜCKE","CHRWB-2252","eionetSurfaceWaterBodyCode","REUSS UNTERLAUF","riverWaterBody","","","","CHSU-1","eionetSubUnitCode","RHINE","CHRBD-1","eionetRBDCode","RHINE","F","8.29849","47.05401","stable"
"CH","CHSF-2102","eionetMonitoringSiteCode","CHSF-2102","eionetMonitoringSiteCode","SARNER AA - SARNEN","CHRWB-2205","eionetSurfaceWaterBodyCode","SARNER AA UNTERLAUF","riverWaterBody","","","","CHSU-1","eionetSubUnitCode","RHINE","CHRBD-1","eionetRBDCode","RHINE","F","8.24518","46.89625","stable"
"CH","CHRW-1494","eionetMonitoringSiteCode","CHRW-1494","eionetMonitoringSiteCode","CHOINDEZ-AVAL DE LA ROCHE ST-JEAN","CHRWB-2062","eionetSurfaceWaterBodyCode","BIRS","riverWaterBody","","","","CHSU-1","eionetSubUnitCode","RHINE","CHRBD-1","eionetRBDCode","RHINE","F","7.39109","47.31433","stable"
"CH","CHRW-1497","eionetMonitoringSiteCode","CHRW-1497","eionetMonitoringSiteCode","LES RIEDES-DESSUS","CHRWB-2062","eionetSurfaceWaterBodyCode","BIRS","riverWaterBody","","","","CHSU-1","eionetSubUnitCode","RHINE","CHRBD-1","eionetRBDCode","RHINE","F","7.40783","47.39488","stable"
"CH","CHSF-2478","eionetMonitoringSiteCode","CHSF-2478","eionetMonitoringSiteCode","BIRSE - SOYHIÈRES, BOIS DU TREUIL","CHRWB-2062","eionetSurfaceWaterBodyCode","BIRS","riverWaterBody","","","","CHSU-1","eionetSubUnitCode","RHINE","CHRBD-1","eionetRBDCode","RHINE","F","7.39598","47.39245","stable"
"CH","CHRW-2033","eionetMonitoringSiteCode","CHRW-2033","eionetMonitoringSiteCode","LUMINO","CHRWB-2034","eionetSurfaceWaterBodyCode","MOESA","riverWaterBody","","","","CHSU-4","eionetSubUnitCode","PO","CHRBD-4","eionetRBDCode","PO","F","9.05552","46.22290","stable"
"CH","CHRW-3001","eionetMonitoringSiteCode","CHRW-3001","eionetMonitoringSiteCode","NIEDERUZWIL, BUECHENTAL","CHRWB-2146","eionetSurfaceWaterBodyCode","GLATT (THUR)","riverWaterBody","","","","CHSU-1","eionetSubUnitCode","RHINE","CHRBD-1","eionetRBDCode","RHINE","F","9.15306","47.44545","stable"
"CH","CHRW-1096","eionetMonitoringSiteCode","CHRW-1096","eionetMonitoringSiteCode","ANDELFINGEN, BRÜCKE","CHRWB-2051","eionetSurfaceWaterBodyCode","THUR","riverWaterBody","","","","CHSU-1","eionetSubUnitCode","RHINE","CHRBD-1","eionetRBDCode","RHINE","F","8.67643","47.59978","stable"
"CH","CHNTG12","eionetMonitoringSiteCode","CHNTG12","eionetMonitoringSiteCode","SAMEDAN","CH7101","eionetGroundWaterBodyCode","ENGADIN","groundWaterBody","","","","","","","CHRBD-3","eionetRBDCode","DANUBE","F","9.87486","46.52588","stable"
"CH","CHRW-1142","eionetMonitoringSiteCode","CHRW-1142","eionetMonitoringSiteCode","NIDAU","CHRWB-2079","eionetSurfaceWaterBodyCode","AARE BIELERSEE-RHEIN","riverWaterBody","","","","CHSU-1","eionetSubUnitCode","RHINE","CHRBD-1","eionetRBDCode","RHINE","F","7.23714","47.12271","stable"
"CH","CHRW-4057","eionetMonitoringSiteCode","CHRW-4057","eionetMonitoringSiteCode","VISP","CHRWB-2118","eionetSurfaceWaterBodyCode","VISPA","riverWaterBody","","","","CHSU-2","eionetSubUnitCode","RHONE","CHRBD-2","eionetRBDCode","RHONE","F","7.88166","46.27420","stable"
"CH","CHRW-4409","eionetMonitoringSiteCode","CHRW-4409","eionetMonitoringSiteCode","APPENZELL","CHRWB-2203","eionetSurfaceWaterBodyCode","SITTER","riverWaterBody","","","","CHSU-1","eionetSubUnitCode","RHINE","CHRBD-1","eionetRBDCode","RHINE","F","9.41026","47.33244","stable"
"CH","CHRW-1373","eionetMonitoringSiteCode","CHRW-1373","eionetMonitoringSiteCode","DÖTTINGEN, RIETHOLZ","CHRWB-2293","eionetSurfaceWaterBodyCode","SURB","riverWaterBody","","","","CHSU-1","eionetSubUnitCode","RHINE","CHRBD-1","eionetRBDCode","RHINE","F","8.26683","47.56431","stable"
"CH","CHRW-1779","eionetMonitoringSiteCode","CHRW-1779","eionetMonitoringSiteCode","VUIPPENS","CHRWB-2291","eionetSurfaceWaterBodyCode","SIONGE","riverWaterBody","","","","CHSU-1","eionetSubUnitCode","RHINE","CHRBD-1","eionetRBDCode","RHINE","F","7.07738","46.65942","stable"
"CH","CHRW-6271","eionetMonitoringSiteCode","CHRW-6271","eionetMonitoringSiteCode","SAUT DU DOUBS","CHRWB-2038","eionetSurfaceWaterBodyCode","DOUBS","riverWaterBody","","","","CHSU-2","eionetSubUnitCode","RHONE","CHRBD-2","eionetRBDCode","RHONE","F","6.71016","47.08428","stable"
"CH","CHSF-2215","eionetMonitoringSiteCode","CHSF-2215","eionetMonitoringSiteCode","SAANE - LAUPEN","CHRWB-2021","eionetSurfaceWaterBodyCode","SAANE","riverWaterBody","","","","CHSU-1","eionetSubUnitCode","RHINE","CHRBD-1","eionetRBDCode","RHINE","F","7.23440","46.90862","stable"
"CH","CHSF-2034","eionetMonitoringSiteCode","CHSF-2034","eionetMonitoringSiteCode","BROYE - PAYERNE, CASERNE D'AVIATION","CHRWB-2110","eionetSurfaceWaterBodyCode","BROYE","riverWaterBody","","","","CHSU-1","eionetSubUnitCode","RHINE","CHRBD-1","eionetRBDCode","RHINE","F","6.93607","46.83592","stable"
"CH","CHRW-1307","eionetMonitoringSiteCode","CHRW-1307","eionetMonitoringSiteCode","AUGST, AUTOBAHN","CHRWB-2228","eionetSurfaceWaterBodyCode","ERGOLZ","riverWaterBody","","","","CHSU-1","eionetSubUnitCode","RHINE","CHRBD-1","eionetRBDCode","RHINE","F","7.71686","47.53477","stable"
"CH","CHRW-1365","eionetMonitoringSiteCode","CHRW-1365","eionetMonitoringSiteCode","NIEDERLENZ","CHRWB-2041","eionetSurfaceWaterBodyCode","AABACH","riverWaterBody","","","","CHSU-1","eionetSubUnitCode","RHINE","CHRBD-1","eionetRBDCode","RHINE","F","8.16871","47.40987","stable"
"CH","CHRW-2064","eionetMonitoringSiteCode","CHRW-2064","eionetMonitoringSiteCode","S-CHANF","CHRWB-2134","eionetSurfaceWaterBodyCode","INN","riverWaterBody","","","","CHSU-3","eionetSubUnitCode","DANUBE","CHRBD-3","eionetRBDCode","DANUBE","F","9.99519","46.61573","stable"
"CH","CHSF-2369","eionetMonitoringSiteCode","CHSF-2369","eionetMonitoringSiteCode","MENTUE - YVONAND, LA MAUGUETTAZ","CHRWB-2168","eionetSurfaceWaterBodyCode","MENTUE","riverWaterBody","","","","CHSU-1","eionetSubUnitCode","RHINE","CHRBD-1","eionetRBDCode","RHINE","F","6.72423","46.77681","stable"
"CH","CHNTQ24","eionetMonitoringSiteCode","CHNTQ24","eionetMonitoringSiteCode","FREIENSTEIN-TEUFEN","CH3104","eionetGroundWaterBodyCode","TÖSS-/EULACHTAL","groundWaterBody","","","","","","","CHRBD-1","eionetRBDCode","RHINE","F","8.59595","47.54665","stable"
"CH","CHRW-2032","eionetMonitoringSiteCode","CHRW-2032","eionetMonitoringSiteCode","OCOURT, PESSES DES VERNES","CHRWB-2038","eionetSurfaceWaterBodyCode","DOUBS","riverWaterBody","","","","CHSU-2","eionetSubUnitCode","RHONE","CHRBD-2","eionetRBDCode","RHONE","F","7.07573","47.35078","stable"
"CH","CHSF-2210","eionetMonitoringSiteCode","CHSF-2210","eionetMonitoringSiteCode","DOUBS - OCOURT","CHRWB-2038","eionetSurfaceWaterBodyCode","DOUBS","riverWaterBody","","","","CHSU-2","eionetSubUnitCode","RHONE","CHRBD-2","eionetRBDCode","RHONE","F","7.07508","47.35042","stable"
"CH","CHRW-3006","eionetMonitoringSiteCode","CHRW-3006","eionetMonitoringSiteCode","LEEBRUGG","CHRWB-2203","eionetSurfaceWaterBodyCode","SITTER","riverWaterBody","","","","CHSU-1","eionetSubUnitCode","RHINE","CHRBD-1","eionetRBDCode","RHINE","F","9.36841","47.45965","stable"
"CH","CHSF-2030","eionetMonitoringSiteCode","CHSF-2030","eionetMonitoringSiteCode","AARE - THUN","CHRWB-2254","eionetSurfaceWaterBodyCode","AARE THUN-BERN","riverWaterBody","","","","CHSU-1","eionetSubUnitCode","RHINE","CHRBD-1","eionetRBDCode","RHINE","F","7.61182","46.76457","stable"
"CH","CHSF-2477","eionetMonitoringSiteCode","CHSF-2477","eionetMonitoringSiteCode","LORZE - ZUG, LETZI","CHRWB-2073","eionetSurfaceWaterBodyCode","LORZE OBERLAUF","riverWaterBody","","","","CHSU-1","eionetSubUnitCode","RHINE","CHRBD-1","eionetRBDCode","RHINE","F","8.50199","47.18067","stable"
"CH","CHSF-2104","eionetMonitoringSiteCode","CHSF-2104","eionetMonitoringSiteCode","LINTH - WEESEN, BIÄSCHE","CHRWB-2234","eionetSurfaceWaterBodyCode","LINTHKANAL","riverWaterBody","","","","CHSU-1","eionetSubUnitCode","RHINE","CHRBD-1","eionetRBDCode","RHINE","F","9.08842","47.13156","stable"
"CH","CHSF-2174","eionetMonitoringSiteCode","CHSF-2174","eionetMonitoringSiteCode","RHONE - CHANCY, AUX RIPES","CHRWB-2089","eionetSurfaceWaterBodyCode","RHONE UNTERLAUF","riverWaterBody","","","","CHSU-2","eionetSubUnitCode","RHONE","CHRBD-2","eionetRBDCode","RHONE","F","5.97073","46.15297","stable"
"CH","CHRW-4070","eionetMonitoringSiteCode","CHRW-4070","eionetMonitoringSiteCode","SION","CHRWB-2015","eionetSurfaceWaterBodyCode","RHONE MITTELLAUF","riverWaterBody","","","","CHSU-2","eionetSubUnitCode","RHONE","CHRBD-2","eionetRBDCode","RHONE","F","7.35790","46.21909","stable"
"CH","CHRW-4922","eionetMonitoringSiteCode","CHRW-4922","eionetMonitoringSiteCode","ATTINGHAUSEN, ALLMEINIGÄRTLI","CHRWB-2214","eionetSurfaceWaterBodyCode","REUSS OBERLAUF","riverWaterBody","","","","CHSU-1","eionetSubUnitCode","RHINE","CHRBD-1","eionetRBDCode","RHINE","F","8.62887","46.87041","stable"
"CH","CHRW-5045","eionetMonitoringSiteCode","CHRW-5045","eionetMonitoringSiteCode","OBERDORF ENNERBERG","CHRWB-2090","eionetSurfaceWaterBodyCode","ENGELBERGER AA","riverWaterBody","","","","CHSU-1","eionetSubUnitCode","RHINE","CHRBD-1","eionetRBDCode","RHINE","F","8.38705","46.96281","stable"
"CH","CHNTG40","eionetMonitoringSiteCode","CHNTG40","eionetMonitoringSiteCode","PRATTELN","CH3101","eionetGroundWaterBodyCode","UNTERSTES HOCHRHEINTAL","groundWaterBody","","","","","","","CHRBD-1","eionetRBDCode","RHINE","F","7.70697","47.52776","stable"
"CH","CHSF-2473","eionetMonitoringSiteCode","CHSF-2473","eionetMonitoringSiteCode","RHEIN - DIEPOLDSAU, RIETBRÜCKE","CHRWB-2194","eionetSurfaceWaterBodyCode","RHEIN ALPENRHEIN","riverWaterBody","","","","CHSU-1","eionetSubUnitCode","RHINE","CHRBD-1","eionetRBDCode","RHINE","F","9.64091","47.38307","stable"
"CH","CHRW-1388","eionetMonitoringSiteCode","CHRW-1388","eionetMonitoringSiteCode","SUHR","CHRWB-2191","eionetSurfaceWaterBodyCode","WYNA","riverWaterBody","","","","CHSU-1","eionetSubUnitCode","RHINE","CHRBD-1","eionetRBDCode","RHINE","F","8.08760","47.37683","stable"
"CH","CHRW-1290","eionetMonitoringSiteCode","CHRW-1290","eionetMonitoringSiteCode","BREITENBACH","CHRWB-2104","eionetSurfaceWaterBodyCode","LUESSEL","riverWaterBody","","","","CHSU-1","eionetSubUnitCode","RHINE","CHRBD-1","eionetRBDCode","RHINE","F","7.54074","47.40725","stable"
"CH","CHRW-5309","eionetMonitoringSiteCode","CHRW-5309","eionetMonitoringSiteCode","EIKEN","CHRWB-2210","eionetSurfaceWaterBodyCode","SISSLEN","riverWaterBody","","","","CHSU-1","eionetSubUnitCode","RHINE","CHRBD-1","eionetRBDCode","RHINE","F","7.99762","47.53145","stable"
"CH","CHRW-6265","eionetMonitoringSiteCode","CHRW-6265","eionetMonitoringSiteCode","BEGGINGEN, VOR ARA","CHRWB-4444","eionetSurfaceWaterBodyCode","CHÄLENGRABEN","riverWaterBody","","","","CHSU-1","eionetSubUnitCode","RHINE","CHRBD-1","eionetRBDCode","RHINE","F","8.52260","47.76519","stable"
"CH","CHRW-1973","eionetMonitoringSiteCode","CHRW-1973","eionetMonitoringSiteCode","MOLLIS, GÄSI","CHRWB-2008","eionetSurfaceWaterBodyCode","LINTH","riverWaterBody","","","","CHSU-1","eionetSubUnitCode","RHINE","CHRBD-1","eionetRBDCode","RHINE","F","9.10247","47.12119","stable"
"CH","CHSF-2176","eionetMonitoringSiteCode","CHSF-2176","eionetMonitoringSiteCode","SIHL - ZÜRICH, SIHLHÖLZLI","CHRWB-2178","eionetSurfaceWaterBodyCode","SIHL","riverWaterBody","","","","CHSU-1","eionetSubUnitCode","RHINE","CHRBD-1","eionetRBDCode","RHINE","F","8.52618","47.36773","stable"
"CH","CHSF-2378","eionetMonitoringSiteCode","CHSF-2378","eionetMonitoringSiteCode","ORBE - ORBE, LE CHALET","CHRWB-2077","eionetSurfaceWaterBodyCode","ORBE UNTERLAUF","riverWaterBody","","","","CHSU-1","eionetSubUnitCode","RHINE","CHRBD-1","eionetRBDCode","RHINE","F","6.52394","46.72757","stable"
"CH","CHSF-2434","eionetMonitoringSiteCode","CHSF-2434","eionetMonitoringSiteCode","DÜNNERN - OLTEN, HAMMERMÜHLE","CHRWB-2241","eionetSurfaceWaterBodyCode","DUENNERN","riverWaterBody","","","","CHSU-1","eionetSubUnitCode","RHINE","CHRBD-1","eionetRBDCode","RHINE","F","7.89020","47.34777","stable"
"CH","CHSF-2634","eionetMonitoringSiteCode","CHSF-2634","eionetMonitoringSiteCode","EMMEN","CHRWB-2100","eionetSurfaceWaterBodyCode","KLEINE EMME","riverWaterBody","","","","CHSU-1","eionetSubUnitCode","RHINE","CHRBD-1","eionetRBDCode","RHINE","F","8.27729","47.07063","stable"
"CH","CHRW-6269","eionetMonitoringSiteCode","CHRW-6269","eionetMonitoringSiteCode","PAMPIGNY, LE SEILER","CHRWB-4446","eionetSurfaceWaterBodyCode","COMBAGNOU","riverWaterBody","","","","CHSU-2","eionetSubUnitCode","RHONE","CHRBD-2","eionetRBDCode","RHONE","F","6.43317","46.57479","stable"
"CH","CHSF-2458","eionetMonitoringSiteCode","CHSF-2458","eionetMonitoringSiteCode","SEYON - VALANGIN","CHRWB-2022","eionetSurfaceWaterBodyCode","SEYON","riverWaterBody","","","","CHSU-1","eionetSubUnitCode","RHINE","CHRBD-1","eionetRBDCode","RHINE","F","6.90431","47.01109","stable"
"CH","CHNTG37","eionetMonitoringSiteCode","CHNTG37","eionetMonitoringSiteCode","BRUGG","CH2109","eionetGroundWaterBodyCode","AARETAL AARWANGEN-BRUGG","groundWaterBody","","","","","","","CHRBD-1","eionetRBDCode","RHINE","F","8.20205","47.47853","stable"
"CH","CHNTG07","eionetMonitoringSiteCode","CHNTG07","eionetMonitoringSiteCode","BASEL","CH3107","eionetGroundWaterBodyCode","BIRS","groundWaterBody","","","","","","","CHRBD-1","eionetRBDCode","RHINE","F","7.57030","47.55551","stable"
"CH","CHRW-1988","eionetMonitoringSiteCode","CHRW-1988","eionetMonitoringSiteCode","FELSENBACH","CHRWB-2218","eionetSurfaceWaterBodyCode","LANDQUART","riverWaterBody","","","","CHSU-1","eionetSubUnitCode","RHINE","CHRBD-1","eionetRBDCode","RHINE","F","9.61213","46.97465","stable"
"CH","CHSF-2307","eionetMonitoringSiteCode","CHSF-2307","eionetMonitoringSiteCode","SUZE - SONCEBOZ","CHRWB-2005","eionetSurfaceWaterBodyCode","SUZE","riverWaterBody","","","","CHSU-1","eionetSubUnitCode","RHINE","CHRBD-1","eionetRBDCode","RHINE","F","7.17219","47.19679","stable"
"CH","CHSF-2368","eionetMonitoringSiteCode","CHSF-2368","eionetMonitoringSiteCode","MAGGIA - LOCARNO, SOLDUNO","CHRWB-2102","eionetSurfaceWaterBodyCode","MAGGIA","riverWaterBody","","","","CHSU-4","eionetSubUnitCode","PO","CHRBD-4","eionetRBDCode","PO","F","8.77358","46.16832","stable"
"CH","CHRW-1873","eionetMonitoringSiteCode","CHRW-1873","eionetMonitoringSiteCode","FRUTIGEN","CHRWB-2160","eionetSurfaceWaterBodyCode","ENGSTLIGEN","riverWaterBody","","","","CHSU-1","eionetSubUnitCode","RHINE","CHRBD-1","eionetRBDCode","RHINE","F","7.63753","46.57943","stable"
"CH","CHRW-1528","eionetMonitoringSiteCode","CHRW-1528","eionetMonitoringSiteCode","VEVEY","CHRWB-2019","eionetSurfaceWaterBodyCode","VEVEYSE","riverWaterBody","","","","CHSU-2","eionetSubUnitCode","RHONE","CHRBD-2","eionetRBDCode","RHONE","F","6.83528","46.46102","stable"
"CH","CHRW-1838","eionetMonitoringSiteCode","CHRW-1838","eionetMonitoringSiteCode","CHANCY","CHRWB-2089","eionetSurfaceWaterBodyCode","RHONE UNTERLAUF","riverWaterBody","","","","CHSU-2","eionetSubUnitCode","RHONE","CHRBD-2","eionetRBDCode","RHONE","F","5.96513","46.14458","stable"
"CH","CHSF-2029","eionetMonitoringSiteCode","CHSF-2029","eionetMonitoringSiteCode","AARE - BRÜGG, AEGERTEN","CHRWB-2079","eionetSurfaceWaterBodyCode","AARE BIELERSEE-RHEIN","riverWaterBody","","","","CHSU-1","eionetSubUnitCode","RHINE","CHRBD-1","eionetRBDCode","RHINE","F","7.28339","47.12207","stable"
"CH","CHSF-2610","eionetMonitoringSiteCode","CHSF-2610","eionetMonitoringSiteCode","SCHEULTE - VICQUES","CHRWB-2280","eionetSurfaceWaterBodyCode","SCHEULTE","riverWaterBody","","","","CHSU-1","eionetSubUnitCode","RHINE","CHRBD-1","eionetRBDCode","RHINE","F","7.43182","47.34821","stable"
"CH","CHRW-1514","eionetMonitoringSiteCode","CHRW-1514","eionetMonitoringSiteCode","BONCOURT","CHRWB-2084","eionetSurfaceWaterBodyCode","ALLAINE","riverWaterBody","","","","CHSU-2","eionetSubUnitCode","RHONE","CHRBD-2","eionetRBDCode","RHONE","F","7.01258","47.50167","stable"
"CH","CHRW-2115","eionetMonitoringSiteCode","CHRW-2115","eionetMonitoringSiteCode","AIGLE, AUTOROUTE","CHRWB-2247","eionetSurfaceWaterBodyCode","GRANDE EAU","riverWaterBody","","","","CHSU-2","eionetSubUnitCode","RHONE","CHRBD-2","eionetRBDCode","RHONE","F","6.93605","46.32433","stable"
"CH","CHRW-6262","eionetMonitoringSiteCode","CHRW-6262","eionetMonitoringSiteCode","FREGIÉCOURT, LAITERIE","CHRWB-4451","eionetSurfaceWaterBodyCode","ERVERATTE","riverWaterBody","","","","CHSU-2","eionetSubUnitCode","RHONE","CHRBD-2","eionetRBDCode","RHONE","F","7.19767","47.41238","stable"
"CH","CHRW-2119","eionetMonitoringSiteCode","CHRW-2119","eionetMonitoringSiteCode","LA MAUGUETTAZ","CHRWB-2168","eionetSurfaceWaterBodyCode","MENTUE","riverWaterBody","","","","CHSU-1","eionetSubUnitCode","RHINE","CHRBD-1","eionetRBDCode","RHINE","F","6.72358","46.77703","stable"
"CH","CHRW-2149","eionetMonitoringSiteCode","CHRW-2149","eionetMonitoringSiteCode","OBERDIESSBACH","CHRWB-2128","eionetSurfaceWaterBodyCode","KIESEN","riverWaterBody","","","","CHSU-1","eionetSubUnitCode","RHINE","CHRBD-1","eionetRBDCode","RHINE","F","7.61958","46.85145","stable"
"CH","CHSF-2202","eionetMonitoringSiteCode","CHSF-2202","eionetMonitoringSiteCode","ERGOLZ - LIESTAL","CHRWB-2228","eionetSurfaceWaterBodyCode","ERGOLZ","riverWaterBody","","","","CHSU-1","eionetSubUnitCode","RHINE","CHRBD-1","eionetRBDCode","RHINE","F","7.73436","47.48800","stable"
"CH","CHSF-2011","eionetMonitoringSiteCode","CHSF-2011","eionetMonitoringSiteCode","RHONE - SION","CHRWB-2015","eionetSurfaceWaterBodyCode","RHONE MITTELLAUF","riverWaterBody","","","","CHSU-2","eionetSubUnitCode","RHONE","CHRBD-2","eionetRBDCode","RHONE","F","7.35790","46.21909","stable"
"CH","CHSF-2056","eionetMonitoringSiteCode","CHSF-2056","eionetMonitoringSiteCode","REUSS - SEEDORF","CHRWB-2214","eionetSurfaceWaterBodyCode","REUSS OBERLAUF","riverWaterBody","","","","CHSU-1","eionetSubUnitCode","RHINE","CHRBD-1","eionetRBDCode","RHINE","F","8.62057","46.88390","stable"
"CH","CHRW-2075","eionetMonitoringSiteCode","CHRW-2075","eionetMonitoringSiteCode","SUHR, BEIM BAHNHOF","CHRWB-2288","eionetSurfaceWaterBodyCode","SUHRE","riverWaterBody","","","","CHSU-1","eionetSubUnitCode","RHINE","CHRBD-1","eionetRBDCode","RHINE","F","8.07908","47.37196","stable"
"CH","CHNTG38","eionetMonitoringSiteCode","CHNTG38","eionetMonitoringSiteCode","LAVIGNY","CH1103","eionetGroundWaterBodyCode","L'ISLE-GRAND","groundWaterBody","","","","","","","CHRBD-2","eionetRBDCode","RHONE","F","6.39906","46.50360","stable"
"CH","CHRW-1536","eionetMonitoringSiteCode","CHRW-1536","eionetMonitoringSiteCode","ALLAMAN, LE COULET","CHRWB-2046","eionetSurfaceWaterBodyCode","AUBONNE","riverWaterBody","","","","CHSU-2","eionetSubUnitCode","RHONE","CHRBD-2","eionetRBDCode","RHONE","F","6.40629","46.47358","stable"
"CH","CHRW-1344","eionetMonitoringSiteCode","CHRW-1344","eionetMonitoringSiteCode","FELSENAU","CHRWB-2079","eionetSurfaceWaterBodyCode","AARE BIELERSEE-RHEIN","riverWaterBody","","","","CHSU-1","eionetSubUnitCode","RHINE","CHRBD-1","eionetRBDCode","RHINE","F","8.22234","47.60536","stable"
"CH","CHRW-1912","eionetMonitoringSiteCode","CHRW-1912","eionetMonitoringSiteCode","MARFELDINGEN","CHRWB-2021","eionetSurfaceWaterBodyCode","SAANE","riverWaterBody","","","","CHSU-1","eionetSubUnitCode","RHINE","CHRBD-1","eionetRBDCode","RHINE","F","7.25339","46.97807","stable"
"CH","CHRW-2025","eionetMonitoringSiteCode","CHRW-2025","eionetMonitoringSiteCode","BROC, HALTE DES MARCHES","CHRWB-2021","eionetSurfaceWaterBodyCode","SAANE","riverWaterBody","","","","CHSU-1","eionetSubUnitCode","RHINE","CHRBD-1","eionetRBDCode","RHINE","F","7.09303","46.60284","stable"
"CH","CHSF-2099","eionetMonitoringSiteCode","CHSF-2099","eionetMonitoringSiteCode","LIMMAT - ZUERICH,UNTERHARD","CHRWB-2098","eionetSurfaceWaterBodyCode","LIMMAT","riverWaterBody","","","","CHSU-1","eionetSubUnitCode","RHINE","CHRBD-1","eionetRBDCode","RHINE","F","8.52545","47.39058","stable"
"CH","CHSF-2109","eionetMonitoringSiteCode","CHSF-2109","eionetMonitoringSiteCode","LÜTSCHINE - GSTEIG","CHRWB-2223","eionetSurfaceWaterBodyCode","LUETSCHINE","riverWaterBody","","","","CHSU-1","eionetSubUnitCode","RHINE","CHRBD-1","eionetRBDCode","RHINE","F","7.87153","46.66421","stable"
"CH","CHSF-2159","eionetMonitoringSiteCode","CHSF-2159","eionetMonitoringSiteCode","GÜRBE - BELP, MÜLIMATT","CHRWB-2245","eionetSurfaceWaterBodyCode","GUERBE","riverWaterBody","","","","CHSU-1","eionetSubUnitCode","RHINE","CHRBD-1","eionetRBDCode","RHINE","F","7.50174","46.88522","stable"
"CH","CHRW-1919","eionetMonitoringSiteCode","CHRW-1919","eionetMonitoringSiteCode","LATTERBACH","CHRWB-2131","eionetSurfaceWaterBodyCode","SIMME","riverWaterBody","","","","CHSU-1","eionetSubUnitCode","RHINE","CHRBD-1","eionetRBDCode","RHINE","F","7.60204","46.66708","stable"
"CH","CHRW-6058","eionetMonitoringSiteCode","CHRW-6058","eionetMonitoringSiteCode","WILERBRUGG","CHRWB-2238","eionetSurfaceWaterBodyCode","MUOTA","riverWaterBody","","","","CHSU-1","eionetSubUnitCode","RHINE","CHRBD-1","eionetRBDCode","RHINE","F","8.59918","47.00071","stable"
"CH","CHRW-1357","eionetMonitoringSiteCode","CHRW-1357","eionetMonitoringSiteCode","ROTHRIST","CHRWB-2184","eionetSurfaceWaterBodyCode","PFAFFNERRN","riverWaterBody","","","","CHSU-1","eionetSubUnitCode","RHINE","CHRBD-1","eionetRBDCode","RHINE","F","7.89236","47.31167","stable"
"CH","CHRW-6264","eionetMonitoringSiteCode","CHRW-6264","eionetMonitoringSiteCode","TRASADINGEN","CHRWB-2150","eionetSurfaceWaterBodyCode","KLINGENGRABEN","riverWaterBody","","","","CHSU-1","eionetSubUnitCode","RHINE","CHRBD-1","eionetRBDCode","RHINE","F","8.43540","47.66478","stable"
"CH","CHSF-2125","eionetMonitoringSiteCode","CHSF-2125","eionetMonitoringSiteCode","LORZE - FRAUENTHAL","CHRWB-2277","eionetSurfaceWaterBodyCode","LORZE UNTERLAUF","riverWaterBody","","","","CHSU-1","eionetSubUnitCode","RHINE","CHRBD-1","eionetRBDCode","RHINE","F","8.42498","47.21532","stable"
"CH","CHRW-1291","eionetMonitoringSiteCode","CHRW-1291","eionetMonitoringSiteCode","KYBURG","CHRWB-2229","eionetSurfaceWaterBodyCode","LIMPACH","riverWaterBody","","","","CHSU-1","eionetSubUnitCode","RHINE","CHRBD-1","eionetRBDCode","RHINE","F","7.51667","47.13780","stable"
"CH","CHRW-4330","eionetMonitoringSiteCode","CHRW-4330","eionetMonitoringSiteCode","AU, OB RBK ZINGGEN","CHRWB-4452","eionetSurfaceWaterBodyCode","ÄÄCHELI","riverWaterBody","","","","CHSU-1","eionetSubUnitCode","RHINE","CHRBD-1","eionetRBDCode","RHINE","F","9.63754","47.42826","stable"
"CH","CHRW-6270","eionetMonitoringSiteCode","CHRW-6270","eionetMonitoringSiteCode","AVAL CANAL D'UVRIER, BATASSÉ","CHRWB-4453","eionetSurfaceWaterBodyCode","CANAL D'UVRIER","riverWaterBody","","","","CHSU-2","eionetSubUnitCode","RHONE","CHRBD-2","eionetRBDCode","RHONE","F","7.40052","46.24763","stable"
"CH","CHRW-6261","eionetMonitoringSiteCode","CHRW-6261","eionetMonitoringSiteCode","LA VOUNAISE","CHRWB-4447","eionetSurfaceWaterBodyCode","BAINOZ","riverWaterBody","","","","CHSU-1","eionetSubUnitCode","RHINE","CHRBD-1","eionetRBDCode","RHINE","F","6.81777","46.80620","stable"
"CH","CHSF-2179","eionetMonitoringSiteCode","CHSF-2179","eionetMonitoringSiteCode","SENSE - THÖRISHAUS, SENSEMATT","CHRWB-2026","eionetSurfaceWaterBodyCode","SENSE","riverWaterBody","","","","CHSU-1","eionetSubUnitCode","RHINE","CHRBD-1","eionetRBDCode","RHINE","F","7.35138","46.88826","stable"
"CH","CHRW-1962","eionetMonitoringSiteCode","CHRW-1962","eionetMonitoringSiteCode","BRIENZWILER","CHRWB-2024","eionetSurfaceWaterBodyCode","AARE OBERLAUF","riverWaterBody","","","","CHSU-1","eionetSubUnitCode","RHINE","CHRBD-1","eionetRBDCode","RHINE","F","8.09203","46.74555","stable"
"CH","CHRW-1011","eionetMonitoringSiteCode","CHRW-1011","eionetMonitoringSiteCode","ABFLUSS GREIFENSEE","CHRWB-4441","eionetSurfaceWaterBodyCode","GLATT","riverWaterBody","","","","CHSU-1","eionetSubUnitCode","RHINE","CHRBD-1","eionetRBDCode","RHINE","F","8.64664","47.37894","stable"
"CH","CHSF-2488","eionetMonitoringSiteCode","CHSF-2488","eionetMonitoringSiteCode","SIMME - LATTERBACH","CHRWB-2131","eionetSurfaceWaterBodyCode","SIMME","riverWaterBody","","","","CHSU-1","eionetSubUnitCode","RHINE","CHRBD-1","eionetRBDCode","RHINE","F","7.57818","46.66171","stable"
"CH","CHSF-2493","eionetMonitoringSiteCode","CHSF-2493","eionetMonitoringSiteCode","PROMENTHOUSE - GLAND, ROUTE SUISSE","CHRWB-4449","eionetSurfaceWaterBodyCode","PROMENTHOUSE","riverWaterBody","","","","CHSU-2","eionetSubUnitCode","RHONE","CHRBD-2","eionetRBDCode","RHONE","F","6.26926","46.40604","stable"
"CH","CHSF-2203","eionetMonitoringSiteCode","CHSF-2203","eionetMonitoringSiteCode","GRANDE EAU - AIGLE","CHRWB-2247","eionetSurfaceWaterBodyCode","GRANDE EAU","riverWaterBody","","","","CHSU-2","eionetSubUnitCode","RHONE","CHRBD-2","eionetRBDCode","RHONE","F","6.97108","46.31897","stable"
"CH","CHNTQ30","eionetMonitoringSiteCode","CHNTQ30","eionetMonitoringSiteCode","GOLDINGEN","CH5301","eionetGroundWaterBodyCode","HÖRNLI SPEER","groundWaterBody","","","","","","","CHRBD-1","eionetRBDCode","RHINE","F","8.97142","47.26386","stable"
"CH","CHNTG47","eionetMonitoringSiteCode","CHNTG47","eionetMonitoringSiteCode","MOLENO","CH6101","eionetGroundWaterBodyCode","LEVENTINA","groundWaterBody","","","","","","","CHRBD-4","eionetRBDCode","PO","F","8.99157","46.27458","stable"
"CH","CHSF-2288","eionetMonitoringSiteCode","CHSF-2288","eionetMonitoringSiteCode","RHEIN - NEUHAUSEN, FLURLINGERBRÜCKE","CHRWB-2120","eionetSurfaceWaterBodyCode","RHEIN HOCHRHEIN","riverWaterBody","","","","CHSU-1","eionetSubUnitCode","RHINE","CHRBD-1","eionetRBDCode","RHINE","F","8.62632","47.68147","stable"
"CH","CHRW-6056","eionetMonitoringSiteCode","CHRW-6056","eionetMonitoringSiteCode","REICHENAU","CHRWB-2268","eionetSurfaceWaterBodyCode","RHEIN VORDERRHEIN","riverWaterBody","","","","CHSU-1","eionetSubUnitCode","RHINE","CHRBD-1","eionetRBDCode","RHINE","F","9.40150","46.82494","stable"
"CH","CHNTG48","eionetMonitoringSiteCode","CHNTG48","eionetMonitoringSiteCode","WILLISAU","CH2107","eionetGroundWaterBodyCode","EMMENTAL-WILLISAU","groundWaterBody","","","","","","","CHRBD-1","eionetRBDCode","RHINE","F","7.97232","47.11382","stable"
"CH","CHRW-1210","eionetMonitoringSiteCode","CHRW-1210","eionetMonitoringSiteCode","VOR ARA HOCHDORF","CHRWB-2094","eionetSurfaceWaterBodyCode","RON","riverWaterBody","","","","CHSU-1","eionetSubUnitCode","RHINE","CHRBD-1","eionetRBDCode","RHINE","F","8.28109","47.17115","stable"
"CH","CHRW-2035","eionetMonitoringSiteCode","CHRW-2035","eionetMonitoringSiteCode","LOCARNO, SOLDUNO","CHRWB-2102","eionetSurfaceWaterBodyCode","MAGGIA","riverWaterBody","","","","CHSU-4","eionetSubUnitCode","PO","CHRBD-4","eionetRBDCode","PO","F","8.77358","46.16832","stable"
"CH","CHRW-2103","eionetMonitoringSiteCode","CHRW-2103","eionetMonitoringSiteCode","LAC","CHRWB-2060","eionetSurfaceWaterBodyCode","BOIRON","riverWaterBody","","","","CHSU-2","eionetSubUnitCode","RHONE","CHRBD-2","eionetRBDCode","RHONE","F","6.47794","46.49387","stable"
"CH","CHSF-2475","eionetMonitoringSiteCode","CHSF-2475","eionetMonitoringSiteCode","MAGGIA - BIGNASCO, PONTE NUOVO","CHRWB-2102","eionetSurfaceWaterBodyCode","MAGGIA","riverWaterBody","","","","CHSU-4","eionetSubUnitCode","PO","CHRBD-4","eionetRBDCode","PO","F","8.60812","46.33830","stable"
"CH","CHRW-2078","eionetMonitoringSiteCode","CHRW-2078","eionetMonitoringSiteCode","WEIL, PALMRAINBRÜCKE","CHRWB-2120","eionetSurfaceWaterBodyCode","RHEIN HOCHRHEIN","riverWaterBody","","","","CHSU-1","eionetSubUnitCode","RHINE","CHRBD-1","eionetRBDCode","RHINE","F","7.58930","47.58990","stable"
"CH","CHRW-1832","eionetMonitoringSiteCode","CHRW-1832","eionetMonitoringSiteCode","HAGNECK","CHRWB-2059","eionetSurfaceWaterBodyCode","AARE BERN-BIELERSEE","riverWaterBody","","","","CHSU-1","eionetSubUnitCode","RHINE","CHRBD-1","eionetRBDCode","RHINE","F","7.17895","47.06099","stable"
"CH","CHRW-3207","eionetMonitoringSiteCode","CHRW-3207","eionetMonitoringSiteCode","NACH RÜTI","CHRWB-2281","eionetSurfaceWaterBodyCode","JONA","riverWaterBody","","","","CHSU-1","eionetSubUnitCode","RHINE","CHRBD-1","eionetRBDCode","RHINE","F","8.83624","47.23935","stable"
"CH","CHRW-3173","eionetMonitoringSiteCode","CHRW-3173","eionetMonitoringSiteCode","BEI MÜHLE MATZINGEN","CHRWB-2235","eionetSurfaceWaterBodyCode","LAUCHE","riverWaterBody","","","","CHSU-1","eionetSubUnitCode","RHINE","CHRBD-1","eionetRBDCode","RHINE","F","8.93059","47.52003","stable"
"CH","CHSF-2372","eionetMonitoringSiteCode","CHSF-2372","eionetMonitoringSiteCode","LINTH - MOLLIS, LINTHBRÜCKE","CHRWB-2008","eionetSurfaceWaterBodyCode","LINTH","riverWaterBody","","","","CHSU-1","eionetSubUnitCode","RHINE","CHRBD-1","eionetRBDCode","RHINE","F","9.07189","47.10105","stable"
"CH","CHRW-6059","eionetMonitoringSiteCode","CHRW-6059","eionetMonitoringSiteCode","MÄRSTETTEN","CHRWB-2099","eionetSurfaceWaterBodyCode","BINNENKANAL","riverWaterBody","","","","CHSU-1","eionetSubUnitCode","RHINE","CHRBD-1","eionetRBDCode","RHINE","F","9.05587","47.59784","stable"
"CH","CHSF-2084","eionetMonitoringSiteCode","CHSF-2084","eionetMonitoringSiteCode","MUOTA - INGENBOHL","CHRWB-2238","eionetSurfaceWaterBodyCode","MUOTA","riverWaterBody","","","","CHSU-1","eionetSubUnitCode","RHINE","CHRBD-1","eionetRBDCode","RHINE","F","8.59890","47.00059","stable"
"CH","CHSF-2009","eionetMonitoringSiteCode","CHSF-2009","eionetMonitoringSiteCode","RHÔNE - PORTE DU SCEX","CHRWB-2015","eionetSurfaceWaterBodyCode","RHONE MITTELLAUF","riverWaterBody","","","","CHSU-2","eionetSubUnitCode","RHONE","CHRBD-2","eionetRBDCode","RHONE","F","6.88861","46.34957","stable"
"CH","CHSF-2420","eionetMonitoringSiteCode","CHSF-2420","eionetMonitoringSiteCode","MOESA - LUMINO, SASSELLO","CHRWB-2034","eionetSurfaceWaterBodyCode","MOESA","riverWaterBody","","","","CHSU-4","eionetSubUnitCode","PO","CHRBD-4","eionetRBDCode","PO","F","9.05577","46.22311","stable"
"CH","CHSF-2351","eionetMonitoringSiteCode","CHSF-2351","eionetMonitoringSiteCode","VISPA - VISP","CHRWB-2118","eionetSurfaceWaterBodyCode","VISPA","riverWaterBody","","","","CHSU-2","eionetSubUnitCode","RHONE","CHRBD-2","eionetRBDCode","RHONE","F","7.88166","46.27420","stable"
"CH","CHLW-1663","eionetMonitoringSiteCode","CHLW-1663","eionetMonitoringSiteCode","LUGANERSEE, NORDBECKEN","CHLWB-3036","eionetSurfaceWaterBodyCode","LAGO DI LUGANO NORDBECKEN","lakeWaterBody","","","","CHSU-4","eionetSubUnitCode","PO","CHRBD-4","eionetRBDCode","PO","F","9.01844","46.00861","stable"
"CH","CHSF-2386","eionetMonitoringSiteCode","CHSF-2386","eionetMonitoringSiteCode","MURG - FRAUENFELD","CHRWB-2185","eionetSurfaceWaterBodyCode","MURG","riverWaterBody","","","","CHSU-1","eionetSubUnitCode","RHINE","CHRBD-1","eionetRBDCode","RHINE","F","8.89439","47.56850","stable"
"CH","CHRW-1556","eionetMonitoringSiteCode","CHRW-1556","eionetMonitoringSiteCode","PASSERELLE E. DE MÉDECINE","CHRWB-2007","eionetSurfaceWaterBodyCode","ARVE","riverWaterBody","","","","CHSU-2","eionetSubUnitCode","RHONE","CHRBD-2","eionetRBDCode","RHONE","F","6.13595","46.19527","stable"
"CH","CHRW-4331","eionetMonitoringSiteCode","CHRW-4331","eionetMonitoringSiteCode","OB RBK, BERNECKER RIET","CHRWB-4443","eionetSurfaceWaterBodyCode","ZAPFENBACH","riverWaterBody","","","","CHSU-1","eionetSubUnitCode","RHINE","CHRBD-1","eionetRBDCode","RHINE","F","9.62151","47.38821","stable"
"CH","CHRW-5023","eionetMonitoringSiteCode","CHRW-5023","eionetMonitoringSiteCode","SARNEN, KÄGISWIL","CHRWB-2205","eionetSurfaceWaterBodyCode","SARNER AA UNTERLAUF","riverWaterBody","","","","CHSU-1","eionetSubUnitCode","RHINE","CHRBD-1","eionetRBDCode","RHINE","F","8.26035","46.91009","stable"
"CH","CHSF-2412","eionetMonitoringSiteCode","CHSF-2412","eionetMonitoringSiteCode","SIONGE - VUIPPENS, CHATEAU","CHRWB-2291","eionetSurfaceWaterBodyCode","SIONGE","riverWaterBody","","","","CHSU-1","eionetSubUnitCode","RHINE","CHRBD-1","eionetRBDCode","RHINE","F","7.07830","46.65852","stable"
"CH","CHSF-2608","eionetMonitoringSiteCode","CHSF-2608","eionetMonitoringSiteCode","SELLENBODENBACH - NEUENKIRCH","CHRWB-4450","eionetSurfaceWaterBodyCode","SELLENBODENBACH","riverWaterBody","","","","CHSU-1","eionetSubUnitCode","RHINE","CHRBD-1","eionetRBDCode","RHINE","F","8.20984","47.11302","stable"
"CH","CHLW-1617","eionetMonitoringSiteCode","CHLW-1617","eionetMonitoringSiteCode","BALDEGGERSEE","CHLWB-3013","eionetSurfaceWaterBodyCode","BALDEGGERSEE","lakeWaterBody","","","","CHSU-1","eionetSubUnitCode","RHINE","CHRBD-1","eionetRBDCode","RHINE","F","8.26146","47.19731","stable"
"CH","CHSF-2085","eionetMonitoringSiteCode","CHSF-2085","eionetMonitoringSiteCode","AARE - HAGNECK","CHRWB-2059","eionetSurfaceWaterBodyCode","AARE BERN-BIELERSEE","riverWaterBody","","","","CHSU-1","eionetSubUnitCode","RHINE","CHRBD-1","eionetRBDCode","RHINE","F","7.18435","47.05560","stable"
"CH","CHRW-2885","eionetMonitoringSiteCode","CHRW-2885","eionetMonitoringSiteCode","BIRSKOPF","CHRWB-2062","eionetSurfaceWaterBodyCode","BIRS","riverWaterBody","","","","CHSU-1","eionetSubUnitCode","RHINE","CHRBD-1","eionetRBDCode","RHINE","F","7.61774","47.55673","stable"
"CH","CHRW-2995","eionetMonitoringSiteCode","CHRW-2995","eionetMonitoringSiteCode","KUBEL, OB SITTER","CHRWB-2036","eionetSurfaceWaterBodyCode","URNAESCH","riverWaterBody","","","","CHSU-1","eionetSubUnitCode","RHINE","CHRBD-1","eionetRBDCode","RHINE","F","9.32648","47.39952","stable"
"CH","CHRW-3627","eionetMonitoringSiteCode","CHRW-3627","eionetMonitoringSiteCode","FREIENSTEIN","CHRWB-2148","eionetSurfaceWaterBodyCode","TOESS","riverWaterBody","","","","CHSU-1","eionetSubUnitCode","RHINE","CHRBD-1","eionetRBDCode","RHINE","F","8.58028","47.53018","stable"
"CH","CHSF-2106","eionetMonitoringSiteCode","CHSF-2106","eionetMonitoringSiteCode","BIRS - MÜNCHENSTEIN, HOFMATT","CHRWB-2062","eionetSurfaceWaterBodyCode","BIRS","riverWaterBody","","","","CHSU-1","eionetSubUnitCode","RHINE","CHRBD-1","eionetRBDCode","RHINE","F","7.61879","47.51833","stable"
"CH","CHRW-1458","eionetMonitoringSiteCode","CHRW-1458","eionetMonitoringSiteCode","VALANGIN","CHRWB-2022","eionetSurfaceWaterBodyCode","SEYON","riverWaterBody","","","","CHSU-1","eionetSubUnitCode","RHINE","CHRBD-1","eionetRBDCode","RHINE","F","6.90422","47.01086","stable"
"CH","CHSF-2122","eionetMonitoringSiteCode","CHSF-2122","eionetMonitoringSiteCode","BIRSE - MOUTIER, LA CHARRUE","CHRWB-2062","eionetSurfaceWaterBodyCode","BIRS","riverWaterBody","","","","CHSU-1","eionetSubUnitCode","RHINE","CHRBD-1","eionetRBDCode","RHINE","F","7.38232","47.28397","stable"
"CH","CHNTG41","eionetMonitoringSiteCode","CHNTG41","eionetMonitoringSiteCode","SEUZACH","CH3104","eionetGroundWaterBodyCode","TÖSS-/EULACHTAL","groundWaterBody","","","","","","","CHRBD-1","eionetRBDCode","RHINE","F","8.71815","47.53514","stable"
"CH","CHRW-1821","eionetMonitoringSiteCode","CHRW-1821","eionetMonitoringSiteCode","DIEPOLDSAU","CHRWB-2194","eionetSurfaceWaterBodyCode","RHEIN ALPENRHEIN","riverWaterBody","","","","CHSU-1","eionetSubUnitCode","RHINE","CHRBD-1","eionetRBDCode","RHINE","F","9.64091","47.38307","stable"
"CH","CHLW-1621","eionetMonitoringSiteCode","CHLW-1621","eionetMonitoringSiteCode","ROTSEE","CHLWB-3014","eionetSurfaceWaterBodyCode","ROTSEE","lakeWaterBody","","","","CHSU-1","eionetSubUnitCode","RHINE","CHRBD-1","eionetRBDCode","RHINE","F","8.31521","47.07034","stable"
"CH","CH1246","eionetMonitoringSiteCode","CH1246","eionetMonitoringSiteCode","NEUENKIRCH","CHRWB-2265","eionetSurfaceWaterBodyCode","ROT (KT. LUZERN)","riverWaterBody","","","","CHSU-1","eionetSubUnitCode","RHINE","CHRBD-1","eionetRBDCode","RHINE","F","8.20961","47.11250","retired"
"CH","CHRW-1265","eionetMonitoringSiteCode","CHRW-1265","eionetMonitoringSiteCode","FRAUENTHAL","CHRWB-2277","eionetSurfaceWaterBodyCode","LORZE UNTERLAUF","riverWaterBody","","","","CHSU-1","eionetSubUnitCode","RHINE","CHRBD-1","eionetRBDCode","RHINE","F","8.42498","47.21532","stable"
"CH","CHRW-1387","eionetMonitoringSiteCode","CHRW-1387","eionetMonitoringSiteCode","ZOFINGEN","CHRWB-2114","eionetSurfaceWaterBodyCode","WIGGER","riverWaterBody","","","","CHSU-1","eionetSubUnitCode","RHINE","CHRBD-1","eionetRBDCode","RHINE","F","7.93060","47.29567","stable"
"CH","CHRW-1876","eionetMonitoringSiteCode","CHRW-1876","eionetMonitoringSiteCode","GERLAFINGEN, STEG","CHRWB-2141","eionetSurfaceWaterBodyCode","EMME","riverWaterBody","","","","CHSU-1","eionetSubUnitCode","RHINE","CHRBD-1","eionetRBDCode","RHINE","F","7.56432","47.18098","stable"
"CH","CHRW-1318","eionetMonitoringSiteCode","CHRW-1318","eionetMonitoringSiteCode","STEIN AM RHEIN","CHRWB-2120","eionetSurfaceWaterBodyCode","RHEIN HOCHRHEIN","riverWaterBody","","","","CHSU-1","eionetSubUnitCode","RHINE","CHRBD-1","eionetRBDCode","RHINE","F","8.85905","47.65835","stable"
"CH","CHSF-2016","eionetMonitoringSiteCode","CHSF-2016","eionetMonitoringSiteCode","AARE - BRUGG","CHRWB-2079","eionetSurfaceWaterBodyCode","AARE BIELERSEE-RHEIN","riverWaterBody","","","","CHSU-1","eionetSubUnitCode","RHINE","CHRBD-1","eionetRBDCode","RHINE","F","8.19489","47.48254","stable"
"CH","CHRW-1419","eionetMonitoringSiteCode","CHRW-1419","eionetMonitoringSiteCode","ECUBLENS, LES BOIS","CHRWB-2167","eionetSurfaceWaterBodyCode","VENOGE","riverWaterBody","","","","CHSU-2","eionetSubUnitCode","RHONE","CHRBD-2","eionetRBDCode","RHONE","F","6.55246","46.53528","stable"
"CH","CHSF-2468","eionetMonitoringSiteCode","CHSF-2468","eionetMonitoringSiteCode","SITTER - ST.GALLEN, BRUGGEN/AU","CHRWB-2203","eionetSurfaceWaterBodyCode","SITTER","riverWaterBody","","","","CHSU-1","eionetSubUnitCode","RHINE","CHRBD-1","eionetRBDCode","RHINE","F","9.32754","47.41444","stable"
"CH","CHRW-3206","eionetMonitoringSiteCode","CHRW-3206","eionetMonitoringSiteCode","AGNO, MUZZANO","CHRWB-2292","eionetSurfaceWaterBodyCode","VEDEGGIO","riverWaterBody","","","","CHSU-4","eionetSubUnitCode","PO","CHRBD-4","eionetRBDCode","PO","F","8.91169","46.00304","stable"
"CH","CHRW-2123","eionetMonitoringSiteCode","CHRW-2123","eionetMonitoringSiteCode","LE RANCHO","CHRWB-4449","eionetSurfaceWaterBodyCode","PROMENTHOUSE","riverWaterBody","","","","CHSU-2","eionetSubUnitCode","RHONE","CHRBD-2","eionetRBDCode","RHONE","F","6.26926","46.40604","stable"
"CH","CHLW-1612","eionetMonitoringSiteCode","CHLW-1612","eionetMonitoringSiteCode","BRIENZERSEE","CHLWB-3007","eionetSurfaceWaterBodyCode","BRIENZERSEE","lakeWaterBody","","","","CHSU-1","eionetSubUnitCode","RHINE","CHRBD-1","eionetRBDCode","RHINE","F","7.95201","46.71785","stable"
"CH","CHNTQ11","eionetMonitoringSiteCode","CHNTQ11","eionetMonitoringSiteCode","BROT-DESSOUS","CH2201","eionetGroundWaterBodyCode","JURA AARE","groundWaterBody","","","","","","","CHRBD-1","eionetRBDCode","RHINE","F","6.74574","46.95244","stable"
"CH","CHNTQ08","eionetMonitoringSiteCode","CHNTQ08","eionetMonitoringSiteCode","AIROLO","CH6301","eionetGroundWaterBodyCode","TESSIN","groundWaterBody","","","","","","","CHRBD-4","eionetRBDCode","PO","F","8.59308","46.53644","stable"
"CH","CHRW-6263","eionetMonitoringSiteCode","CHRW-6263","eionetMonitoringSiteCode","BALGACHER RIET","CHRWB-4442","eionetSurfaceWaterBodyCode","MITTLERER SEEGRABEN","riverWaterBody","","","","CHSU-1","eionetSubUnitCode","RHINE","CHRBD-1","eionetRBDCode","RHINE","F","9.61239","47.38808","stable"
"CH","CHRW-2022","eionetMonitoringSiteCode","CHRW-2022","eionetMonitoringSiteCode","HONDRICH","CHRWB-2042","eionetSurfaceWaterBodyCode","KANDER","riverWaterBody","","","","CHSU-1","eionetSubUnitCode","RHINE","CHRBD-1","eionetRBDCode","RHINE","F","7.65960","46.68308","stable"
"CH","CHSF-2070","eionetMonitoringSiteCode","CHSF-2070","eionetMonitoringSiteCode","EMME - EMMENMATT","CHRWB-2141","eionetSurfaceWaterBodyCode","EMME","riverWaterBody","","","","CHSU-1","eionetSubUnitCode","RHINE","CHRBD-1","eionetRBDCode","RHINE","F","7.74880","46.95444","stable"
"CH","CHRW-1345","eionetMonitoringSiteCode","CHRW-1345","eionetMonitoringSiteCode","TURGI","CHRWB-2098","eionetSurfaceWaterBodyCode","LIMMAT","riverWaterBody","","","","CHSU-1","eionetSubUnitCode","RHINE","CHRBD-1","eionetRBDCode","RHINE","F","8.25198","47.49548","stable"
"CH","CHSF-2112","eionetMonitoringSiteCode","CHSF-2112","eionetMonitoringSiteCode","SITTER - APPENZELL","CHRWB-2203","eionetSurfaceWaterBodyCode","SITTER","riverWaterBody","","","","CHSU-1","eionetSubUnitCode","RHINE","CHRBD-1","eionetRBDCode","RHINE","F","9.41064","47.33199","stable"
"CH","CHRW-4879","eionetMonitoringSiteCode","CHRW-4879","eionetMonitoringSiteCode","FRAUENFELD","CHRWB-2185","eionetSurfaceWaterBodyCode","MURG","riverWaterBody","","","","CHSU-1","eionetSubUnitCode","RHINE","CHRBD-1","eionetRBDCode","RHINE","F","8.89459","47.56871","stable"
"CH","CHSF-2374","eionetMonitoringSiteCode","CHSF-2374","eionetMonitoringSiteCode","NECKER - MOGELSBERG, AACHSÄGE","CHRWB-2227","eionetSurfaceWaterBodyCode","NECKER","riverWaterBody","","","","CHSU-1","eionetSubUnitCode","RHINE","CHRBD-1","eionetRBDCode","RHINE","F","9.12144","47.36419","stable"
"CH","CHLW-1607","eionetMonitoringSiteCode","CHLW-1607","eionetMonitoringSiteCode","BIELERSEE","CHLWB-3011","eionetSurfaceWaterBodyCode","BIELERSEE","lakeWaterBody","","","","CHSU-1","eionetSubUnitCode","RHINE","CHRBD-1","eionetRBDCode","RHINE","F","7.19755","47.10429","stable"
"CH","CHRW-6055","eionetMonitoringSiteCode","CHRW-6055","eionetMonitoringSiteCode","ROTHENBRUNNEN","CHRWB-2123","eionetSurfaceWaterBodyCode","RHEIN HINTERRHEIN","riverWaterBody","","","","CHSU-1","eionetSubUnitCode","RHINE","CHRBD-1","eionetRBDCode","RHINE","F","9.42032","46.76973","stable"
"CH","CHRW-1837","eionetMonitoringSiteCode","CHRW-1837","eionetMonitoringSiteCode","PORTE DU SCEX","CHRWB-2015","eionetSurfaceWaterBodyCode","RHONE MITTELLAUF","riverWaterBody","","","","CHSU-2","eionetSubUnitCode","RHONE","CHRBD-2","eionetRBDCode","RHONE","F","6.88861","46.34957","stable"
"CH","CHSF-2450","eionetMonitoringSiteCode","CHSF-2450","eionetMonitoringSiteCode","WIGGER - ZOFINGEN","CHRWB-2114","eionetSurfaceWaterBodyCode","WIGGER","riverWaterBody","","","","CHSU-1","eionetSubUnitCode","RHINE","CHRBD-1","eionetRBDCode","RHINE","F","7.93537","47.28355","stable"
"CH","CHLW-1742","eionetMonitoringSiteCode","CHLW-1742","eionetMonitoringSiteCode","MURTENSEE","CHLWB-3027","eionetSurfaceWaterBodyCode","LAC DE MORAT","lakeWaterBody","","","","CHSU-1","eionetSubUnitCode","RHINE","CHRBD-1","eionetRBDCode","RHINE","F","7.06441","46.92888","stable"
"CH","CHSF-2044","eionetMonitoringSiteCode","CHSF-2044","eionetMonitoringSiteCode","THUR - ANDELFINGEN","CHRWB-2051","eionetSurfaceWaterBodyCode","THUR","riverWaterBody","","","","CHSU-1","eionetSubUnitCode","RHINE","CHRBD-1","eionetRBDCode","RHINE","F","8.68199","47.59652","stable"
"CH","CHSF-2346","eionetMonitoringSiteCode","CHSF-2346","eionetMonitoringSiteCode","RHONE - BRIG","CHRWB-2222","eionetSurfaceWaterBodyCode","RHONE OBERLAUF","riverWaterBody","","","","CHSU-2","eionetSubUnitCode","RHONE","CHRBD-2","eionetRBDCode","RHONE","F","7.97536","46.31743","stable"
"CH","CHNTG36","eionetMonitoringSiteCode","CHNTG36","eionetMonitoringSiteCode","MUTTENZ","CH3101","eionetGroundWaterBodyCode","UNTERSTES HOCHRHEINTAL","groundWaterBody","","","","","","","CHRBD-1","eionetRBDCode","RHINE","F","7.62577","47.54022","stable"
"CH","CHNTG16","eionetMonitoringSiteCode","CHNTG16","eionetMonitoringSiteCode","LUCENS","CH2101","eionetGroundWaterBodyCode","LA BROYE","groundWaterBody","","","","","","","CHRBD-1","eionetRBDCode","RHINE","F","6.85600","46.71744","stable"
"CH","CHLW-1715","eionetMonitoringSiteCode","CHLW-1715","eionetMonitoringSiteCode","GENFERSEE","CHLWB-3039","eionetSurfaceWaterBodyCode","LE LÉMAN","lakeWaterBody","","","","CHSU-2","eionetSubUnitCode","RHONE","CHRBD-2","eionetRBDCode","RHONE","F","6.21995","46.29720","stable"
"CH","CHNTQ31","eionetMonitoringSiteCode","CHNTQ31","eionetMonitoringSiteCode","HEITENRIED","CH2302","eionetGroundWaterBodyCode","SAANE","groundWaterBody","","","","","","","CHRBD-1","eionetRBDCode","RHINE","F","7.31175","46.83506","stable"
"CH","CHRW-1154","eionetMonitoringSiteCode","CHRW-1154","eionetMonitoringSiteCode","BIEL MITTE, VOR MÜNDUNG","CHRWB-2005","eionetSurfaceWaterBodyCode","SUZE","riverWaterBody","","","","CHSU-1","eionetSubUnitCode","RHINE","CHRBD-1","eionetRBDCode","RHINE","F","7.23745","47.13354","stable"
"CH","CHRW-1825","eionetMonitoringSiteCode","CHRW-1825","eionetMonitoringSiteCode","REKINGEN","CHRWB-2120","eionetSurfaceWaterBodyCode","RHEIN HOCHRHEIN","riverWaterBody","","","","CHSU-1","eionetSubUnitCode","RHINE","CHRBD-1","eionetRBDCode","RHINE","F","8.32984","47.57035","stable"
"CH","CHRW-2993","eionetMonitoringSiteCode","CHRW-2993","eionetMonitoringSiteCode","NIEDERBÜREN, GOLFPLATZ","CHRWB-2051","eionetSurfaceWaterBodyCode","THUR","riverWaterBody","","","","CHSU-1","eionetSubUnitCode","RHINE","CHRBD-1","eionetRBDCode","RHINE","F","9.19473","47.47069","stable"
"CH","CHRW-1414","eionetMonitoringSiteCode","CHRW-1414","eionetMonitoringSiteCode","PONTE TRESA","CHRWB-2309","eionetSurfaceWaterBodyCode","TRESA","riverWaterBody","","","","CHSU-4","eionetSubUnitCode","PO","CHRBD-4","eionetRBDCode","PO","F","8.85517","45.96930","stable"
"CH","CHRW-6060","eionetMonitoringSiteCode","CHRW-6060","eionetMonitoringSiteCode","BRONTALLO","CHRWB-2102","eionetSurfaceWaterBodyCode","MAGGIA","riverWaterBody","","","","CHSU-4","eionetSubUnitCode","PO","CHRBD-4","eionetRBDCode","PO","F","8.64567","46.35924","stable"
"CH","CHRW-1014","eionetMonitoringSiteCode","CHRW-1014","eionetMonitoringSiteCode","NACH ARA RÜTI","CHRWB-2281","eionetSurfaceWaterBodyCode","JONA","riverWaterBody","","","","CHSU-1","eionetSubUnitCode","RHINE","CHRBD-1","eionetRBDCode","RHINE","F","8.83623","47.23935","stable"
"CH","CHNTG43","eionetMonitoringSiteCode","CHNTG43","eionetMonitoringSiteCode","MONTHEY","CH1101","eionetGroundWaterBodyCode","UNTERES RHONETAL","groundWaterBody","","","","","","","CHRBD-2","eionetRBDCode","RHONE","F","6.96071","46.27235","stable"
"CH","CHLW-1593","eionetMonitoringSiteCode","CHLW-1593","eionetMonitoringSiteCode","PFÄFFIKERSEE","CHLWB-3002","eionetSurfaceWaterBodyCode","PFÄFFIKERSEE","lakeWaterBody","","","","CHSU-1","eionetSubUnitCode","RHINE","CHRBD-1","eionetRBDCode","RHINE","F","8.78370","47.35161","stable"
"CH","CHNTG22","eionetMonitoringSiteCode","CHNTG22","eionetMonitoringSiteCode","NÄFELS","CH5102","eionetGroundWaterBodyCode","LINTTHAL LINTHEBENE","groundWaterBody","","","","","","","CHRBD-1","eionetRBDCode","RHINE","F","9.05795","47.08286","stable"
"CH","CHNTQ25","eionetMonitoringSiteCode","CHNTQ25","eionetMonitoringSiteCode","DELÉMONT","CH3201","eionetGroundWaterBodyCode","JURA RHEIN","groundWaterBody","","","","","","","CHRBD-1","eionetRBDCode","RHINE","F","7.34242","47.36865","stable"
"CH","CHRW-1264","eionetMonitoringSiteCode","CHRW-1264","eionetMonitoringSiteCode","LETZI","CHRWB-2073","eionetSurfaceWaterBodyCode","LORZE OBERLAUF","riverWaterBody","","","","CHSU-1","eionetSubUnitCode","RHINE","CHRBD-1","eionetRBDCode","RHINE","F","8.50199","47.18067","stable"
"CH","CHLW-1606","eionetMonitoringSiteCode","CHLW-1606","eionetMonitoringSiteCode","ZÜRICHSEE","CHLWB-3005","eionetSurfaceWaterBodyCode","ZÜRICHSEE","lakeWaterBody","","","","CHSU-1","eionetSubUnitCode","RHINE","CHRBD-1","eionetRBDCode","RHINE","F","8.59100","47.28578","stable"
"CH","CHNTQ29","eionetMonitoringSiteCode","CHNTQ29","eionetMonitoringSiteCode","OBERSAXEN","CH3301","eionetGroundWaterBodyCode","VORDER- UND HINTERRHEINTAL","groundWaterBody","","","","","","","CHRBD-1","eionetRBDCode","RHINE","F","9.06627","46.70960","stable"
"CH","CHRW-1131","eionetMonitoringSiteCode","CHRW-1131","eionetMonitoringSiteCode","VOR MÜNDUNG, BEI BODENACHER FÄHRE","CHRWB-2245","eionetSurfaceWaterBodyCode","GUERBE","riverWaterBody","","","","CHSU-1","eionetSubUnitCode","RHINE","CHRBD-1","eionetRBDCode","RHINE","F","7.48623","46.92049","stable"
"CH","CHLW-1611","eionetMonitoringSiteCode","CHLW-1611","eionetMonitoringSiteCode","THUNERSEE","CHLWB-3006","eionetSurfaceWaterBodyCode","THUNERSEE","lakeWaterBody","","","","CHSU-1","eionetSubUnitCode","RHINE","CHRBD-1","eionetRBDCode","RHINE","F","7.76339","46.67311","stable"
"CH","CHLW-1595","eionetMonitoringSiteCode","CHLW-1595","eionetMonitoringSiteCode","TÜRLERSEE","CHLWB-3001","eionetSurfaceWaterBodyCode","TÜRLERSEE","lakeWaterBody","","","","CHSU-1","eionetSubUnitCode","RHINE","CHRBD-1","eionetRBDCode","RHINE","F","8.49948","47.27025","stable"
"CH","CHLW-1643","eionetMonitoringSiteCode","CHLW-1643","eionetMonitoringSiteCode","HALLWILERSEE","CHLWB-3016","eionetSurfaceWaterBodyCode","HALLWILERSEE","lakeWaterBody","","","","CHSU-1","eionetSubUnitCode","RHINE","CHRBD-1","eionetRBDCode","RHINE","F","8.21382","47.27949","stable"
"CH","CHNTG01","eionetMonitoringSiteCode","CHNTG01","eionetMonitoringSiteCode","TRUB","CH2107","eionetGroundWaterBodyCode","EMMENTAL-WILLISAU","groundWaterBody","","","","","","","CHRBD-1","eionetRBDCode","RHINE","F","7.87775","46.94008","stable"
"CH","CHRW-1016","eionetMonitoringSiteCode","CHRW-1016","eionetMonitoringSiteCode","HÜTTEN","CHRWB-2178","eionetSurfaceWaterBodyCode","SIHL","riverWaterBody","","","","CHSU-1","eionetSubUnitCode","RHINE","CHRBD-1","eionetRBDCode","RHINE","F","8.66507","47.17212","stable"
"CH","CHNTG42","eionetMonitoringSiteCode","CHNTG42","eionetMonitoringSiteCode","DÜDINGEN","CH2102","eionetGroundWaterBodyCode","DÜDINGEN-LAUPEN","groundWaterBody","","","","","","","CHRBD-1","eionetRBDCode","RHINE","F","7.19637","46.84126","stable"
"CH","CHNTG45","eionetMonitoringSiteCode","CHNTG45","eionetMonitoringSiteCode","BETTWIL","CH2111","eionetGroundWaterBodyCode","AARE-SUHRE-SEETAL","groundWaterBody","","","","","","","CHRBD-1","eionetRBDCode","RHINE","F","8.26730","47.28510","stable"
"CH","CHRW-1162","eionetMonitoringSiteCode","CHRW-1162","eionetMonitoringSiteCode","EMMENMATT MITTE","CHRWB-2141","eionetSurfaceWaterBodyCode","EMME","riverWaterBody","","","","CHSU-1","eionetSubUnitCode","RHINE","CHRBD-1","eionetRBDCode","RHINE","F","7.74995","46.94877","stable"
"CH","CHNTG39","eionetMonitoringSiteCode","CHNTG39","eionetMonitoringSiteCode","COMMUGNY","CH1301","eionetGroundWaterBodyCode","GENF-WAADT","groundWaterBody","","","","","","","CHRBD-2","eionetRBDCode","RHONE","F","6.17589","46.32098","stable"
"CH","CHRW-2127","eionetMonitoringSiteCode","CHRW-2127","eionetMonitoringSiteCode","CHAVORNAY","CHRWB-2032","eionetSurfaceWaterBodyCode","TALENT","riverWaterBody","","","","CHSU-1","eionetSubUnitCode","RHINE","CHRBD-1","eionetRBDCode","RHINE","F","6.55843","46.70502","stable"
"CH","CHNTG17","eionetMonitoringSiteCode","CHNTG17","eionetMonitoringSiteCode","NIEDERLENZ","CH2109","eionetGroundWaterBodyCode","AARETAL AARWANGEN-BRUGG","groundWaterBody","","","","","","","CHRBD-1","eionetRBDCode","RHINE","F","8.15623","47.40966","stable"
"CH","CHSF-2143","eionetMonitoringSiteCode","CHSF-2143","eionetMonitoringSiteCode","RHEIN - REKINGEN","CHRWB-2120","eionetSurfaceWaterBodyCode","RHEIN HOCHRHEIN","riverWaterBody","","","","CHSU-1","eionetSubUnitCode","RHINE","CHRBD-1","eionetRBDCode","RHINE","F","8.32984","47.57035","stable"
"CH","CHRW-1476","eionetMonitoringSiteCode","CHRW-1476","eionetMonitoringSiteCode","BOUDRY, BRÜCKE","CHRWB-2075","eionetSurfaceWaterBodyCode","AREUSE","riverWaterBody","","","","CHSU-1","eionetSubUnitCode","RHINE","CHRBD-1","eionetRBDCode","RHINE","F","6.83940","46.94909","stable"
"CH","CHRW-2129","eionetMonitoringSiteCode","CHRW-2129","eionetMonitoringSiteCode","YVERDON, LES PARTIES","CHRWB-2116","eionetSurfaceWaterBodyCode","ZIHL","riverWaterBody","","","","CHSU-1","eionetSubUnitCode","RHINE","CHRBD-1","eionetRBDCode","RHINE","F","6.63476","46.77797","stable"
"CH","CHNTQ28","eionetMonitoringSiteCode","CHNTQ28","eionetMonitoringSiteCode","OBERDORF","CH4201","eionetGroundWaterBodyCode","BRISEN URIROTSTOCK","groundWaterBody","","","","","","","CHRBD-1","eionetRBDCode","RHINE","F","8.40380","46.93620","stable"
"CH","CHLW-1636","eionetMonitoringSiteCode","CHLW-1636","eionetMonitoringSiteCode","ZUGERSEE","CHLWB-3017","eionetSurfaceWaterBodyCode","ZUGERSEE","lakeWaterBody","","","","CHSU-1","eionetSubUnitCode","RHINE","CHRBD-1","eionetRBDCode","RHINE","F","8.49245","47.09849","stable"
"CH","CHRW-1064","eionetMonitoringSiteCode","CHRW-1064","eionetMonitoringSiteCode","OTELFINGEN","CHRWB-2273","eionetSurfaceWaterBodyCode","FURTBACH","riverWaterBody","","","","CHSU-1","eionetSubUnitCode","RHINE","CHRBD-1","eionetRBDCode","RHINE","F","8.38677","47.44951","stable"
"CH","CHNTG02","eionetMonitoringSiteCode","CHNTG02","eionetMonitoringSiteCode","KIESEN","CH2106","eionetGroundWaterBodyCode","AARETAL THUN-BERN","groundWaterBody","","","","","","","CHRBD-1","eionetRBDCode","RHINE","F","7.57926","46.80131","stable"
"CH","CHRW-1934","eionetMonitoringSiteCode","CHRW-1934","eionetMonitoringSiteCode","SCHALUNEN","CHRWB-2093","eionetSurfaceWaterBodyCode","URTENEN","riverWaterBody","","","","CHSU-1","eionetSubUnitCode","RHINE","CHRBD-1","eionetRBDCode","RHINE","F","7.53037","47.10744","stable"
"CH","CHSF-2387","eionetMonitoringSiteCode","CHSF-2387","eionetMonitoringSiteCode","HINTERRHEIN - FÜRSTENAU","CHRWB-2123","eionetSurfaceWaterBodyCode","RHEIN HINTERRHEIN","riverWaterBody","","","","CHSU-1","eionetSubUnitCode","RHINE","CHRBD-1","eionetRBDCode","RHINE","F","9.44735","46.71508","stable"
"CH","CHLW-1649","eionetMonitoringSiteCode","CHLW-1649","eionetMonitoringSiteCode","HASENSEE, OSTBECKEN","CHLWB-3032","eionetSurfaceWaterBodyCode","HASENSEE OSTBECKEN","lakeWaterBody","","","","CHSU-1","eionetSubUnitCode","RHINE","CHRBD-1","eionetRBDCode","RHINE","F","8.83240","47.60695","stable"
"CH","CHNTG14","eionetMonitoringSiteCode","CHNTG14","eionetMonitoringSiteCode","DIETIKON","CH5101","eionetGroundWaterBodyCode","LIMMATTAL","groundWaterBody","","","","","","","CHRBD-1","eionetRBDCode","RHINE","F","8.39680","47.41140","stable"
"CH","CHRW-1010","eionetMonitoringSiteCode","CHRW-1010","eionetMonitoringSiteCode","NIEDERUSTER","CHRWB-2129","eionetSurfaceWaterBodyCode","AA (USTER)","riverWaterBody","","","","CHSU-1","eionetSubUnitCode","RHINE","CHRBD-1","eionetRBDCode","RHINE","F","8.69562","47.34768","stable"
"CH","CHNTG34","eionetMonitoringSiteCode","CHNTG34","eionetMonitoringSiteCode","OSTERMUNDIGEN","CH2105","eionetGroundWaterBodyCode","AARETAL STADT BERN","groundWaterBody","","","","","","","CHRBD-1","eionetRBDCode","RHINE","F","7.48673","46.95165","stable"
"CH","CHSF-2486","eionetMonitoringSiteCode","CHSF-2486","eionetMonitoringSiteCode","VEVEYSE - VEVEY, COPET","CHRWB-2019","eionetSurfaceWaterBodyCode","VEVEYSE","riverWaterBody","","","","CHSU-2","eionetSubUnitCode","RHONE","CHRBD-2","eionetRBDCode","RHONE","F","6.84854","46.46888","stable"
"CH","CHRW-1366","eionetMonitoringSiteCode","CHRW-1366","eionetMonitoringSiteCode","MÖRIKEN","CHRWB-2304","eionetSurfaceWaterBodyCode","BUENZ","riverWaterBody","","","","CHSU-1","eionetSubUnitCode","RHINE","CHRBD-1","eionetRBDCode","RHINE","F","8.17863","47.41392","stable"
"CH","CHRW-1824","eionetMonitoringSiteCode","CHRW-1824","eionetMonitoringSiteCode","RHEINSFELDEN","CHRWB-4441","eionetSurfaceWaterBodyCode","GLATT","riverWaterBody","","","","CHSU-1","eionetSubUnitCode","RHINE","CHRBD-1","eionetRBDCode","RHINE","F","8.47583","47.57346","stable"
"CH","CHRW-6257","eionetMonitoringSiteCode","CHRW-6257","eionetMonitoringSiteCode","KÜNTEN","CHRWB-4445","eionetSurfaceWaterBodyCode","KÜNTENBACH","riverWaterBody","","","","CHSU-1","eionetSubUnitCode","RHINE","CHRBD-1","eionetRBDCode","RHINE","F","8.32656","47.38605","stable"
"CH","CHRW-1765","eionetMonitoringSiteCode","CHRW-1765","eionetMonitoringSiteCode","VOR MÜNDUNG, MATTENHOF","CHRWB-2016","eionetSurfaceWaterBodyCode","STEINACH","riverWaterBody","","","","CHSU-1","eionetSubUnitCode","RHINE","CHRBD-1","eionetRBDCode","RHINE","F","9.43959","47.49694","stable"
"CH","CHSF-2289","eionetMonitoringSiteCode","CHSF-2289","eionetMonitoringSiteCode","RHEIN - BASEL, RHEINHALLE","CHRWB-2120","eionetSurfaceWaterBodyCode","RHEIN HOCHRHEIN","riverWaterBody","","","","CHSU-1","eionetSubUnitCode","RHINE","CHRBD-1","eionetRBDCode","RHINE","F","7.61667","47.55943","stable"
"CH","CHLW-1644","eionetMonitoringSiteCode","CHLW-1644","eionetMonitoringSiteCode","BODENSEE","CHLWB-3028","eionetSurfaceWaterBodyCode","BODENSEE","lakeWaterBody","","","","CHSU-1","eionetSubUnitCode","RHINE","CHRBD-1","eionetRBDCode","RHINE","F","9.35410","47.61797","stable"
"CH","CHRW-2991","eionetMonitoringSiteCode","CHRW-2991","eionetMonitoringSiteCode","OB THUR, LÜTISBURG","CHRWB-2227","eionetSurfaceWaterBodyCode","NECKER","riverWaterBody","","","","CHSU-1","eionetSubUnitCode","RHINE","CHRBD-1","eionetRBDCode","RHINE","F","9.08539","47.39286","stable"
"CH","CHNTG21","eionetMonitoringSiteCode","CHNTG21","eionetMonitoringSiteCode","GLATTFELDEN","CH3102","eionetGroundWaterBodyCode","GLATTTAL-FISIBACH","groundWaterBody","","","","","","","CHRBD-1","eionetRBDCode","RHINE","F","8.50424","47.55443","stable"
"CH","CHRW-1108","eionetMonitoringSiteCode","CHRW-1108","eionetMonitoringSiteCode","MURGENTHAL","CHRWB-2079","eionetSurfaceWaterBodyCode","AARE BIELERSEE-RHEIN","riverWaterBody","","","","CHSU-1","eionetSubUnitCode","RHINE","CHRBD-1","eionetRBDCode","RHINE","F","7.83188","47.26741","stable"
"CH","CHNTG18","eionetMonitoringSiteCode","CHNTG18","eionetMonitoringSiteCode","MÄRSTETTEN","CH3105","eionetGroundWaterBodyCode","THURTAL","groundWaterBody","","","","","","","CHRBD-1","eionetRBDCode","RHINE","F","9.05805","47.57788","stable"
"CH","CHRW-1072","eionetMonitoringSiteCode","CHRW-1072","eionetMonitoringSiteCode","MÖNCHALTORF","CHRWB-2137","eionetSurfaceWaterBodyCode","MOENCHALTORFER AA","riverWaterBody","","","","CHSU-1","eionetSubUnitCode","RHINE","CHRBD-1","eionetRBDCode","RHINE","F","8.72055","47.31100","stable"
"CH","CHNTQ26","eionetMonitoringSiteCode","CHNTQ26","eionetMonitoringSiteCode","HELLIKON 1","CH3201","eionetGroundWaterBodyCode","JURA RHEIN","groundWaterBody","","","","","","","CHRBD-1","eionetRBDCode","RHINE","F","7.92807","47.51084","stable"
"CH","CHSF-2469","eionetMonitoringSiteCode","CHSF-2469","eionetMonitoringSiteCode","KANDER - HONDRICH","CHRWB-2042","eionetSurfaceWaterBodyCode","KANDER","riverWaterBody","","","","CHSU-1","eionetSubUnitCode","RHINE","CHRBD-1","eionetRBDCode","RHINE","F","7.67110","46.66659","stable"
"CH","CHSF-2063","eionetMonitoringSiteCode","CHSF-2063","eionetMonitoringSiteCode","AARE - MURGENTHAL","CHRWB-2079","eionetSurfaceWaterBodyCode","AARE BIELERSEE-RHEIN","riverWaterBody","","","","CHSU-1","eionetSubUnitCode","RHINE","CHRBD-1","eionetRBDCode","RHINE","F","7.82883","47.26606","stable"
"CH","CHSF-2160","eionetMonitoringSiteCode","CHSF-2160","eionetMonitoringSiteCode","SARINE - BROC, CHATEAU D'EN BAS","CHRWB-2021","eionetSurfaceWaterBodyCode","SAANE","riverWaterBody","","","","CHSU-1","eionetSubUnitCode","RHINE","CHRBD-1","eionetRBDCode","RHINE","F","7.09303","46.60284","stable"
"CH","CHRW-1288","eionetMonitoringSiteCode","CHRW-1288","eionetMonitoringSiteCode","OLTEN, HAMMER","CHRWB-2241","eionetSurfaceWaterBodyCode","DUENNERN","riverWaterBody","","","","CHSU-1","eionetSubUnitCode","RHINE","CHRBD-1","eionetRBDCode","RHINE","F","7.88911","47.34652","stable"
"CH","CHRW-1432","eionetMonitoringSiteCode","CHRW-1432","eionetMonitoringSiteCode","DOMDIDIER","CHRWB-2110","eionetSurfaceWaterBodyCode","BROYE","riverWaterBody","","","","CHSU-1","eionetSubUnitCode","RHINE","CHRBD-1","eionetRBDCode","RHINE","F","6.99504","46.87778","stable"
"CH","CHSF-2433","eionetMonitoringSiteCode","CHSF-2433","eionetMonitoringSiteCode","AUBONNE - ALLAMAN, LE COULET","CHRWB-2046","eionetSurfaceWaterBodyCode","AUBONNE","riverWaterBody","","","","CHSU-2","eionetSubUnitCode","RHONE","CHRBD-2","eionetRBDCode","RHONE","F","6.40636","46.47331","stable"
"CH","CHNTQ27","eionetMonitoringSiteCode","CHNTQ27","eionetMonitoringSiteCode","ALT ST.JOHANN","CH3114","eionetGroundWaterBodyCode","BISCHOFSZELL-GOSSAU","groundWaterBody","","","","","","","CHRBD-1","eionetRBDCode","RHINE","F","9.27982","47.19375","stable"
"CH","CHLW-1674","eionetMonitoringSiteCode","CHLW-1674","eionetMonitoringSiteCode","NEUENBURGERSEE","CHLWB-3012","eionetSurfaceWaterBodyCode","LAC DE NEUCHÂTEL","lakeWaterBody","","","","CHSU-1","eionetSubUnitCode","RHINE","CHRBD-1","eionetRBDCode","RHINE","F","6.84289","46.90437","stable"
"CH","CHLW-1619","eionetMonitoringSiteCode","CHLW-1619","eionetMonitoringSiteCode","SEMPACHERSEE","CHLWB-3015","eionetSurfaceWaterBodyCode","SEMPACHERSEE","lakeWaterBody","","","","CHSU-1","eionetSubUnitCode","RHINE","CHRBD-1","eionetRBDCode","RHINE","F","8.18543","47.13954","stable"
"CH","CHRW-1017","eionetMonitoringSiteCode","CHRW-1017","eionetMonitoringSiteCode","SIHLHÖLZLI","CHRWB-2178","eionetSurfaceWaterBodyCode","SIHL","riverWaterBody","","","","CHSU-1","eionetSubUnitCode","RHINE","CHRBD-1","eionetRBDCode","RHINE","F","8.52614","47.36769","stable"
"CH","CHLW-1645","eionetMonitoringSiteCode","CHLW-1645","eionetMonitoringSiteCode","HÜTTWILERSEE","CHLWB-3034","eionetSurfaceWaterBodyCode","HÜTTWILERSEE","lakeWaterBody","","","","CHSU-1","eionetSubUnitCode","RHINE","CHRBD-1","eionetRBDCode","RHINE","F","8.84364","47.60943","stable"
"CH","CHRW-1163","eionetMonitoringSiteCode","CHRW-1163","eionetMonitoringSiteCode","MANGEN","CHRWB-2272","eionetSurfaceWaterBodyCode","LANGETEN","riverWaterBody","","","","CHSU-1","eionetSubUnitCode","RHINE","CHRBD-1","eionetRBDCode","RHINE","F","7.81974","47.24868","stable"
"CH","CHRW-1176","eionetMonitoringSiteCode","CHRW-1176","eionetMonitoringSiteCode","LUZERN, BAHNHOF","CHRWB-2252","eionetSurfaceWaterBodyCode","REUSS UNTERLAUF","riverWaterBody","","","","CHSU-1","eionetSubUnitCode","RHINE","CHRBD-1","eionetRBDCode","RHINE","F","8.31003","47.05145","stable"
"CH","CHRW-1768","eionetMonitoringSiteCode","CHRW-1768","eionetMonitoringSiteCode","ST.MARGRETHEN","CHRWB-2053","eionetSurfaceWaterBodyCode","RHEINTALER BINNENKANAL","riverWaterBody","","","","CHSU-1","eionetSubUnitCode","RHINE","CHRBD-1","eionetRBDCode","RHINE","F","9.65533","47.44955","stable"
"CH","CHNTG35","eionetMonitoringSiteCode","CHNTG35","eionetMonitoringSiteCode","ZÜRICH","CH5101","eionetGroundWaterBodyCode","LIMMATTAL","groundWaterBody","","","","","","","CHRBD-1","eionetRBDCode","RHINE","F","8.50354","47.38464","stable"
"CH","CHLW-1651","eionetMonitoringSiteCode","CHLW-1651","eionetMonitoringSiteCode","NUSSBAUMERSEE","CHLWB-3033","eionetSurfaceWaterBodyCode","NUSSBAUMERSEE","lakeWaterBody","","","","CHSU-1","eionetSubUnitCode","RHINE","CHRBD-1","eionetRBDCode","RHINE","F","8.81865","47.61521","stable"
"CH","CHLW-1664","eionetMonitoringSiteCode","CHLW-1664","eionetMonitoringSiteCode","LUGANERSEE, SÜDBECKEN","CHLWB-3046","eionetSurfaceWaterBodyCode","LAGO DI LUGANO SÜDBECKEN","lakeWaterBody","","","","CHSU-4","eionetSubUnitCode","PO","CHRBD-4","eionetRBDCode","PO","F","8.89681","45.95842","stable"
"CH","CHNTG15","eionetMonitoringSiteCode","CHNTG15","eionetMonitoringSiteCode","KAPPELEN - GIMMIZ 2","CH2103","eionetGroundWaterBodyCode","AARE-HAGNECK-KANAL","groundWaterBody","","","","","","","CHRBD-1","eionetRBDCode","RHINE","F","7.24878","47.05316","stable"
"CH","CHNTG51","eionetMonitoringSiteCode","CHNTG51","eionetMonitoringSiteCode","WORBEN","CH2104","eionetGroundWaterBodyCode","BERNER SEELAND","groundWaterBody","","","","","","","CHRBD-1","eionetRBDCode","RHINE","F","7.29052","47.10172","stable"
"CH","CHNTG04","eionetMonitoringSiteCode","CHNTG04","eionetMonitoringSiteCode","LUTERBACH","CH2108","eionetGroundWaterBodyCode","AARETAL STADT SOLOTHURN","groundWaterBody","","","","","","","CHRBD-1","eionetRBDCode","RHINE","F","7.59839","47.22267","stable"
"CH","CHRW-1053","eionetMonitoringSiteCode","CHRW-1053","eionetMonitoringSiteCode","HÖNGGERSTEG","CHRWB-2098","eionetSurfaceWaterBodyCode","LIMMAT","riverWaterBody","","","","CHSU-1","eionetSubUnitCode","RHINE","CHRBD-1","eionetRBDCode","RHINE","F","8.49322","47.39921","stable"
"CH","CHSF-2480","eionetMonitoringSiteCode","CHSF-2480","eionetMonitoringSiteCode","AREUSE - BOUDRY","CHRWB-2075","eionetSurfaceWaterBodyCode","AREUSE","riverWaterBody","","","","CHSU-1","eionetSubUnitCode","RHINE","CHRBD-1","eionetRBDCode","RHINE","F","6.83898","46.94897","stable"
"CH","CHNTG46","eionetMonitoringSiteCode","CHNTG46","eionetMonitoringSiteCode","BRITTNAU","CH2110","eionetGroundWaterBodyCode","WIGGERTAL","groundWaterBody","","","","","","","CHRBD-1","eionetRBDCode","RHINE","F","7.94547","47.27545","stable"
"CH","CHRW-1158","eionetMonitoringSiteCode","CHRW-1158","eionetMonitoringSiteCode","BÖNIGEN MITTE","CHRWB-2223","eionetSurfaceWaterBodyCode","LUETSCHINE","riverWaterBody","","","","CHSU-1","eionetSubUnitCode","RHINE","CHRBD-1","eionetRBDCode","RHINE","F","7.89628","46.69030","stable"
"CH","CHSF-2150","eionetMonitoringSiteCode","CHSF-2150","eionetMonitoringSiteCode","LANDQUART - FELSENBACH","CHRWB-2218","eionetSurfaceWaterBodyCode","LANDQUART","riverWaterBody","","","","CHSU-1","eionetSubUnitCode","RHINE","CHRBD-1","eionetRBDCode","RHINE","F","9.61213","46.97465","stable"
"CH","CHNTQ10","eionetMonitoringSiteCode","CHNTQ10","eionetMonitoringSiteCode","LENK","CH2202","eionetGroundWaterBodyCode","WILDHORN KANDERTAL","groundWaterBody","","","","","","","CHRBD-1","eionetRBDCode","RHINE","F","7.43779","46.42251","stable"
"CH","CHNTG06A","eionetMonitoringSiteCode","CHNTG06A","eionetMonitoringSiteCode","OBERRIET 2","CH3106","eionetGroundWaterBodyCode","ALPENRHEIN","groundWaterBody","","","","","","","CHRBD-1","eionetRBDCode","RHINE","F","9.57545","47.31330","stable"
"CH","CHSF-2053","eionetMonitoringSiteCode","CHSF-2053","eionetMonitoringSiteCode","DRANCE - MARTIGNY, PONT DE ROSSETTAN","CHRWB-2043","eionetSurfaceWaterBodyCode","DRANSE","riverWaterBody","","","","CHSU-2","eionetSubUnitCode","RHONE","CHRBD-2","eionetRBDCode","RHONE","F","7.06274","46.09768","stable"
"CH","CHSF-2205","eionetMonitoringSiteCode","CHSF-2205","eionetMonitoringSiteCode","AARE - UNTERSIGGENTHAL, STILLI","CHRWB-2079","eionetSurfaceWaterBodyCode","AARE BIELERSEE-RHEIN","riverWaterBody","","","","CHSU-1","eionetSubUnitCode","RHINE","CHRBD-1","eionetRBDCode","RHINE","F","8.23481","47.51663","stable"
"CH","CHSF-2485","eionetMonitoringSiteCode","CHSF-2485","eionetMonitoringSiteCode","ALLAINE - BONCOURT, FRONTIERE","CHRWB-2084","eionetSurfaceWaterBodyCode","ALLAINE","riverWaterBody","","","","CHSU-2","eionetSubUnitCode","RHONE","CHRBD-2","eionetRBDCode","RHONE","F","7.01166","47.50077","stable"
"CH","CHSF-2018","eionetMonitoringSiteCode","CHSF-2018","eionetMonitoringSiteCode","REUSS - MELLINGEN","CHRWB-2252","eionetSurfaceWaterBodyCode","REUSS UNTERLAUF","riverWaterBody","","","","CHSU-1","eionetSubUnitCode","RHINE","CHRBD-1","eionetRBDCode","RHINE","F","8.27128","47.42103","stable"
"CH","CHSF-2415","eionetMonitoringSiteCode","CHSF-2415","eionetMonitoringSiteCode","GLATT - RHEINSFELDEN","CHRWB-4441","eionetSurfaceWaterBodyCode","GLATT","riverWaterBody","","","","CHSU-1","eionetSubUnitCode","RHINE","CHRBD-1","eionetRBDCode","RHINE","F","8.47583","47.57354","stable"
"CH","CHSF-2019","eionetMonitoringSiteCode","CHSF-2019","eionetMonitoringSiteCode","AARE - BRIENZWILER","CHRWB-2024","eionetSurfaceWaterBodyCode","AARE OBERLAUF","riverWaterBody","","","","CHSU-1","eionetSubUnitCode","RHINE","CHRBD-1","eionetRBDCode","RHINE","F","8.09204","46.74574","stable"
"CH","CHSF-2312","eionetMonitoringSiteCode","CHSF-2312","eionetMonitoringSiteCode","AACH - SALMSACH, HUNGERBÜHL","CHRWB-2056","eionetSurfaceWaterBodyCode","AACH (ROMANSHORN)","riverWaterBody","","","","CHSU-1","eionetSubUnitCode","RHINE","CHRBD-1","eionetRBDCode","RHINE","F","9.35723","47.55043","stable"
"CH","CHSF-2170","eionetMonitoringSiteCode","CHSF-2170","eionetMonitoringSiteCode","ARVE - GENÈVE, BOUT DU MONDE","CHRWB-2007","eionetSurfaceWaterBodyCode","ARVE","riverWaterBody","","","","CHSU-2","eionetSubUnitCode","RHONE","CHRBD-2","eionetRBDCode","RHONE","F","6.15936","46.18029","stable"
"CH","CHRW-6268","eionetMonitoringSiteCode","CHRW-6268","eionetMonitoringSiteCode","AMONT MAUGUETTAZ","CHRWB-4448","eionetSurfaceWaterBodyCode","RUISSEAU DES VAUX","riverWaterBody","","","","CHSU-1","eionetSubUnitCode","RHINE","CHRBD-1","eionetRBDCode","RHINE","F","6.72041","46.78035","stable"
"CH","CHSF-2479","eionetMonitoringSiteCode","CHSF-2479","eionetMonitoringSiteCode","SORNE - DELÉMONT","CHRWB-2169","eionetSurfaceWaterBodyCode","SORNE","riverWaterBody","","","","CHSU-1","eionetSubUnitCode","RHINE","CHRBD-1","eionetRBDCode","RHINE","F","7.35284","47.36742","stable"
"CH","CHLW-1592","eionetMonitoringSiteCode","CHLW-1592","eionetMonitoringSiteCode","GREIFENSEE","CHLWB-3004","eionetSurfaceWaterBodyCode","GREIFENSEE","lakeWaterBody","","","","CHSU-1","eionetSubUnitCode","RHINE","CHRBD-1","eionetRBDCode","RHINE","F","8.67809","47.34987","stable"
"CH","CHNTG13","eionetMonitoringSiteCode","CHNTG13","eionetMonitoringSiteCode","GIUBIASCO","CH6101","eionetGroundWaterBodyCode","LEVENTINA","groundWaterBody","","","","","","","CHRBD-4","eionetRBDCode","PO","F","8.97504","46.16728","stable"
"CH","CHRW-1181","eionetMonitoringSiteCode","CHRW-1181","eionetMonitoringSiteCode","LITTAU-REUSSBÜHL","CHRWB-2100","eionetSurfaceWaterBodyCode","KLEINE EMME","riverWaterBody","","","","CHSU-1","eionetSubUnitCode","RHINE","CHRBD-1","eionetRBDCode","RHINE","F","8.28408","47.06671","stable"
"CH","CHRW-1119","eionetMonitoringSiteCode","CHRW-1119","eionetMonitoringSiteCode","THÖRISHAUS","CHRWB-2026","eionetSurfaceWaterBodyCode","SENSE","riverWaterBody","","","","CHSU-1","eionetSubUnitCode","RHINE","CHRBD-1","eionetRBDCode","RHINE","F","7.35309","46.88729","stable"
"CH","CHNTG05A","eionetMonitoringSiteCode","CHNTG05A","eionetMonitoringSiteCode","STANS 2 - OBERMILCHBRUNNEN","CH4101","eionetGroundWaterBodyCode","ENGELBERGERTAL","groundWaterBody","","","","","","","CHRBD-1","eionetRBDCode","RHINE","F","8.37609","46.96129","stable"
"CH","CHNTG50A","eionetMonitoringSiteCode","CHNTG50A","eionetMonitoringSiteCode","DOMAT/EMS 2","CH3106","eionetGroundWaterBodyCode","ALPENRHEIN","groundWaterBody","","","","","","","CHRBD-1","eionetRBDCode","RHINE","F","9.47299","46.83846","stable"
"CH","CHSF-2139","eionetMonitoringSiteCode","CHSF-2139","eionetMonitoringSiteCode","RHEINT.BINNENKANAL - ST.MARGRETHEN","CHRWB-2053","eionetSurfaceWaterBodyCode","RHEINTALER BINNENKANAL","riverWaterBody","","","","CHSU-1","eionetSubUnitCode","RHINE","CHRBD-1","eionetRBDCode","RHINE","F","9.65533","47.44955","stable"
"CH","CHLW-1613","eionetMonitoringSiteCode","CHLW-1613","eionetMonitoringSiteCode","BURGÄSCHISEE","CHLWB-3010","eionetSurfaceWaterBodyCode","BURGÄSCHISEE","lakeWaterBody","","","","CHSU-1","eionetSubUnitCode","RHINE","CHRBD-1","eionetRBDCode","RHINE","F","7.66813","47.16899","stable"
"CH","CHNTG20","eionetMonitoringSiteCode","CHNTG20","eionetMonitoringSiteCode","CHARRAT","CH1102","eionetGroundWaterBodyCode","MITTLERES UND OBERES RHONETAL","groundWaterBody","","","","","","","CHRBD-2","eionetRBDCode","RHONE","F","7.13157","46.13089","stable"
"CH","CHNTG33","eionetMonitoringSiteCode","CHNTG33","eionetMonitoringSiteCode","PREGASSONA","CH6102","eionetGroundWaterBodyCode","MISOX SOTTOCENERI","groundWaterBody","","","","","","","CHRBD-4","eionetRBDCode","PO","F","8.96381","46.01865","stable"
"CH","CHNTG19","eionetMonitoringSiteCode","CHNTG19","eionetMonitoringSiteCode","MAIENFELD","CH3106","eionetGroundWaterBodyCode","ALPENRHEIN","groundWaterBody","","","","","","","CHRBD-1","eionetRBDCode","RHINE","F","9.53416","46.99491","stable"
"CH","CHRW-1002","eionetMonitoringSiteCode","CHRW-1002","eionetMonitoringSiteCode","RÄMISMÜHLE, ZELL","CHRWB-2148","eionetSurfaceWaterBodyCode","TOESS","riverWaterBody","","","","CHSU-1","eionetSubUnitCode","RHINE","CHRBD-1","eionetRBDCode","RHINE","F","8.81354","47.44394","stable"
"CH","CHRW-1145","eionetMonitoringSiteCode","CHRW-1145","eionetMonitoringSiteCode","THUN SCHADAU","CHRWB-2254","eionetSurfaceWaterBodyCode","AARE THUN-BERN","riverWaterBody","","","","CHSU-1","eionetSubUnitCode","RHINE","CHRBD-1","eionetRBDCode","RHINE","F","7.63780","46.74712","stable"
"CH","CHRW-1402","eionetMonitoringSiteCode","CHRW-1402","eionetMonitoringSiteCode","SALMSACH","CHRWB-2056","eionetSurfaceWaterBodyCode","AACH (ROMANSHORN)","riverWaterBody","","","","CHSU-1","eionetSubUnitCode","RHINE","CHRBD-1","eionetRBDCode","RHINE","F","9.35385","47.55039","stable"
"CH","CHSF-2155","eionetMonitoringSiteCode","CHSF-2155","eionetMonitoringSiteCode","EMME - WILER, LIMPACHMÜNDUNG","CHRWB-2141","eionetSurfaceWaterBodyCode","EMME","riverWaterBody","","","","CHSU-1","eionetSubUnitCode","RHINE","CHRBD-1","eionetRBDCode","RHINE","F","7.54703","47.16008","stable"
"CH","CHRW-1833","eionetMonitoringSiteCode","CHRW-1833","eionetMonitoringSiteCode","BRUGG","CHRWB-2079","eionetSurfaceWaterBodyCode","AARE BIELERSEE-RHEIN","riverWaterBody","","","","CHSU-1","eionetSubUnitCode","RHINE","CHRBD-1","eionetRBDCode","RHINE","F","8.19489","47.48254","stable"
"CH","CHRW-1840","eionetMonitoringSiteCode","CHRW-1840","eionetMonitoringSiteCode","RIAZZINO","CHRWB-2175","eionetSurfaceWaterBodyCode","TICINO","riverWaterBody","","","","CHSU-4","eionetSubUnitCode","PO","CHRBD-4","eionetRBDCode","PO","F","8.90992","46.16345","stable"
"CH","CHSF-2020","eionetMonitoringSiteCode","CHSF-2020","eionetMonitoringSiteCode","TICINO - BELLINZONA","CHRWB-2175","eionetSurfaceWaterBodyCode","TICINO","riverWaterBody","","","","CHSU-4","eionetSubUnitCode","PO","CHRBD-4","eionetRBDCode","PO","F","9.00929","46.19376","stable"
"CH","CHRW-2986","eionetMonitoringSiteCode","CHRW-2986","eionetMonitoringSiteCode","GROSSE ALLMEND, OBERSEE","CHRWB-2234","eionetSurfaceWaterBodyCode","LINTHKANAL","riverWaterBody","","","","CHSU-1","eionetSubUnitCode","RHINE","CHRBD-1","eionetRBDCode","RHINE","F","8.97069","47.21680","stable"
"CH","CHRW-6258","eionetMonitoringSiteCode","CHRW-6258","eionetMonitoringSiteCode","ZEININGEN","CHRWB-2306","eionetSurfaceWaterBodyCode","MÖHLINBACH","riverWaterBody","","","","CHSU-1","eionetSubUnitCode","RHINE","CHRBD-1","eionetRBDCode","RHINE","F","7.87173","47.54194","stable"
"CH","CHLW-1650","eionetMonitoringSiteCode","CHLW-1650","eionetMonitoringSiteCode","HASENSEE, WESTBECKEN","CHLWB-3047","eionetSurfaceWaterBodyCode","HASENSEE WESTBECKEN","lakeWaterBody","","","","CHSU-1","eionetSubUnitCode","RHINE","CHRBD-1","eionetRBDCode","RHINE","F","8.82710","47.60792","stable"
"CH","CHSF-2403","eionetMonitoringSiteCode","CHSF-2403","eionetMonitoringSiteCode","INN - CINUOS-CHEL","CHRWB-2134","eionetSurfaceWaterBodyCode","INN","riverWaterBody","","","","CHSU-3","eionetSubUnitCode","DANUBE","CHRBD-3","eionetRBDCode","DANUBE","F","10.02095","46.63549","stable"
"CH","CHSF-2132","eionetMonitoringSiteCode","CHSF-2132","eionetMonitoringSiteCode","TOESS - NEFTENBACH","CHRWB-2148","eionetSurfaceWaterBodyCode","TOESS","riverWaterBody","","","","CHSU-1","eionetSubUnitCode","RHINE","CHRBD-1","eionetRBDCode","RHINE","F","8.65294","47.51875","stable"
"CH","CHSF-2481","eionetMonitoringSiteCode","CHSF-2481","eionetMonitoringSiteCode","ENGELBERGER AA - BUOCHS, FLUGPLATZ","CHRWB-2090","eionetSurfaceWaterBodyCode","ENGELBERGER AA","riverWaterBody","","","","CHSU-1","eionetSubUnitCode","RHINE","CHRBD-1","eionetRBDCode","RHINE","F","8.40533","46.97277","stable"
"CH","CHLW-3713","eionetMonitoringSiteCode","CHLW-3713","eionetMonitoringSiteCode","VIERWALDSTÄTTERSEE","CHLWB-3018","eionetSurfaceWaterBodyCode","VIERWALDSTÄTTERSEE","lakeWaterBody","","","","CHSU-1","eionetSubUnitCode","RHINE","CHRBD-1","eionetRBDCode","RHINE","F","8.34555","47.04240","stable"
"CH","CHNTG44","eionetMonitoringSiteCode","CHNTG44","eionetMonitoringSiteCode","VOLKETSWIL","CH3103","eionetGroundWaterBodyCode","OBERES GLATTTAL","groundWaterBody","","","","","","","CHRBD-1","eionetRBDCode","RHINE","F","8.69862","47.38937","stable"
"CH","CHNTQ23","eionetMonitoringSiteCode","CHNTQ23","eionetMonitoringSiteCode","MUND","CH1302","eionetGroundWaterBodyCode","WALLIS NORD","groundWaterBody","","","","","","","CHRBD-2","eionetRBDCode","RHONE","F","7.94724","46.32520","stable"
"CH","CHLW-1639","eionetMonitoringSiteCode","CHLW-1639","eionetMonitoringSiteCode","AEGERISEE","CHLWB-3026","eionetSurfaceWaterBodyCode","AEGERISEE","lakeWaterBody","","","","CHSU-1","eionetSubUnitCode","RHINE","CHRBD-1","eionetRBDCode","RHINE","F","8.61847","47.12268","stable"
"CH","CHNTQ03","eionetMonitoringSiteCode","CHNTQ03","eionetMonitoringSiteCode","L'ABBAYE","CH2301","eionetGroundWaterBodyCode","LAC DE NEUCHÂTEL-MURTENSEE","groundWaterBody","","","","","","","CHRBD-1","eionetRBDCode","RHINE","F","6.67497","46.64942","stable"
"CH","CHNTQ32","eionetMonitoringSiteCode","CHNTQ32","eionetMonitoringSiteCode","MONTMAGNY","CH2301","eionetGroundWaterBodyCode","LAC DE NEUCHÂTEL-MURTENSEE","groundWaterBody","","","","","","","CHRBD-1","eionetRBDCode","RHINE","F","7.01056","46.93049","stable"
"CH","CHRW-1020","eionetMonitoringSiteCode","CHRW-1020","eionetMonitoringSiteCode","DIETIKON","CHRWB-2236","eionetSurfaceWaterBodyCode","REPPISCH","riverWaterBody","","","","CHSU-1","eionetSubUnitCode","RHINE","CHRBD-1","eionetRBDCode","RHINE","F","8.39852","47.41098","stable"
"CH","CHLW-1596","eionetMonitoringSiteCode","CHLW-1596","eionetMonitoringSiteCode","LÜTZELSEE","CHLWB-3003","eionetSurfaceWaterBodyCode","LÜTZELSEE","lakeWaterBody","","","","CHSU-1","eionetSubUnitCode","RHINE","CHRBD-1","eionetRBDCode","RHINE","F","8.77147","47.25955","stable"
"CH","CHNTG50","eionetMonitoringSiteCode","CHNTG50","eionetMonitoringSiteCode","DOMAT/EMS 2","CH3106","eionetGroundWaterBodyCode","ALPENRHEIN","groundWaterBody","","","","","","","CHRBD-1","eionetRBDCode","RHINE","F","9.47299","46.83846","retired"
